city,total_margin,orders_count,lat,lon
London,15090.183837777013,922,51.52013390262473,-0.10719180030054339
Madrid,10370.00241256112,753,40.425173481075696,-3.675784647682603
Paris,8256.636505914968,480,48.8596933614375,2.339198946072917
Berlin,5731.691274473261,441,52.49941087995465,13.428213501133786
Barcelona,4239.435181485714,290,41.397773232344825,2.1553944544551724
Hamburg,4238.441620779613,275,53.55387065752728,10.013640240483635
München,3121.575691359369,219,48.14782172127854,11.552493909452055
Köln,2922.5853533149034,166,50.944065908554215,6.953641027638555
Gorzów Wielkopolski,2506.580280886279,186,52.38014748,15.33408923
Málaga,2475.3760874890654,118,36.72643563949153,-4.460058291576272
Sevilla,2452.3485031364585,156,37.39635845839744,-5.953660203884615
Bogatynia,2426.8239841824357,142,51.22152827,15.726955070000002
Marseille,2426.168679905835,172,43.30355756366279,5.405542468645349
Toulouse,2224.2766018703423,143,43.601972581398606,1.4309318613076922
Valencia,2188.927738142753,160,39.4646419515625,-0.368597524731875
Birmingham,1909.2419741258643,134,52.461242762761195,-1.8856974591343283
Dortmund,1784.5537445145385,102,51.520529700686275,7.461990772323529
Antwerp,1784.4563633217338,125,51.24377983904,4.393030458768
Frankfurt am Main,1670.292133060715,132,50.11873502681818,8.618135366530304
Coventry,1621.9884552095928,77,52.41732710844156,-1.5037616762337662
Zaragoza,1608.1020356458923,84,41.64959925595238,-0.9022163808964285
Duisburg,1463.3710676479432,78,51.469832457692306,6.733872780576923
Dresden,1463.08072457119,86,51.06210621779069,13.755325272674419
Sheffield,1449.0199610665816,86,53.38501347186047,-1.502693504976744
Nantes,1337.7326100468276,70,47.223562820714285,-1.5539234271
Strasbourg,1285.5431482822814,86,48.57636620906977,7.770044206848838
Nürnberg,1275.177013800838,73,49.45094514931507,11.05905748479452
Valladolid,1275.051447651839,57,41.6419513777193,-4.7416586114912285
Stoke-on-Trent,1269.0329117947992,62,53.006575873225806,-2.1613791578225805
null,1240.0334615567808,60,41.14497815083333,-1.5000568079973333
Nice,1207.8074340911512,65,43.71061381738462,7.238850546215384
Schaerbeek,1204.8897667620165,47,50.86181791,4.386214686
Stuttgart,1197.825875681293,95,48.78480868452632,9.174282282042105
Hannover,1189.9640317763035,87,52.38138435183908,9.771775177850575
Herne,1179.1921624660777,41,51.540672830975616,7.212910323512196
Bilbao,1177.898320709965,71,43.254603864788734,-2.923088654197183
Manchester,1157.624540529641,82,53.467186358292686,-2.223617045707317
Palma,1146.8697348059322,86,39.582740805,2.657682328651163
Angers,1144.9084180394514,44,47.49141408909091,-0.5451941406727273
Bristol,1107.0352334886843,121,51.46369083057851,-2.581680976380165
Toulon,1078.5489509738163,52,43.13386336865385,5.949695983346154
Lyon,1031.6585242225099,90,45.743694762333334,4.846031041288889
Mönchengladbach,1031.2120772102126,43,51.165085027906976,6.437531966418604
Leipzig,987.1012676793143,66,51.34879847030303,12.350099275909091
Brussels,980.6012038032217,61,50.86880884721312,4.3734927118688525
San Sebastián,952.0643358079963,51,43.3049834845098,-1.9653093730980393
Düsseldorf,945.5743504362113,76,51.215214290789476,6.8083245329078945
Nottingham,937.2570033090344,81,52.97998768975308,-1.1591393586296295
Montreuil,928.6130499339542,34,48.86350633,2.448628269
Bordeaux,911.3779547379738,64,44.8511444578125,-0.5806617516109375
Ulm,908.5094527964909,31,48.396175395161286,9.953538561096774
Lübeck,906.3835283291803,63,53.866103151587296,10.701010346825397
Bochum,895.9235099782117,59,51.483928493389826,7.225636521220339
Leicester,895.3135368856412,84,52.630342877738094,-1.1161543007619048
Rivas-Vaciamadrid,893.7635732215095,32,40.36856181,-3.52481419690625
Leeds,888.0042360370486,81,53.82250446604938,-1.5267702553950617
Swindon,875.7557782839356,46,51.57758335304347,-1.7765273024565218
Schwedt/Oder,870.8295016293754,60,52.9910920225,14.662023244166667
Córdoba,858.4268130591469,70,37.86825463342857,-4.782564197628571
Sabadell,856.3654228218751,49,41.54487861183674,2.1026198856938776
Fronton,851.0580492327304,16,43.80864477,1.399302134
Enfield,848.4514933313319,32,51.6608527846875,-0.055581253185625
Edinburgh,844.6239271223374,63,55.935653435873014,-3.251483520809524
Newcastle upon Tyne,843.5575366723099,63,54.98998731253968,-1.6196670613174604
Tours,835.3236488851197,45,47.40003241266667,0.6958197228755556
Alicante (Alacant),833.3626362068092,61,38.358304845081975,-0.4932091899885246
L'Hospitalet de Llobregat,829.4986855672024,65,41.36123739738461,2.1142111642000003
Badalona,826.3600550583217,39,41.452660906153845,2.237574204230769
Krefeld,824.2233260308069,53,51.31547646924528,6.564575430264151
Nanterre,804.1580206521805,39,48.89620701,2.206929732
Viladecans,802.4971291802777,30,41.30310214,2.032023105
Cartagena,798.0821117726501,42,37.61602024214286,-0.9857328401023809
Rotherham,797.1994052375095,29,53.43355113275862,-1.3509327336896553
Ghent,793.1903167862207,56,51.07638386196429,3.7326299784285717
Oxford,781.6630924587289,57,51.75976178771929,-1.2583621644385965
Albacete,781.1818852123228,49,39.0203051755102,-1.8855159115306122
Glasgow,773.117897030184,56,55.86688767696428,-4.262622395946428
Münster,770.4082085403943,76,51.95510693605263,7.647461803631579
Mannheim,767.1770815918162,38,49.50741818842105,8.50267476968421
Essen,763.6383734063255,51,51.453339054705886,6.943564692254902
Peterborough,761.4411983102899,54,52.59787736370371,-0.22984023863703704
Slough,749.9812214020684,43,51.532769167441856,-0.6212548964930232
Hounslow,749.959031383592,40,51.472588720500006,-0.37986393347999997
Anderlecht,749.7445009518124,27,50.828936430000006,4.292895927
Croydon,746.2731603127247,53,51.365506319999994,-0.06564003382
Grenoble,746.0573775489363,40,45.180423231999995,5.7218976252000004
Kingston upon Hull,738.7186657644507,54,53.78072308722222,-0.3503638740703704
Liverpool,738.5925815927553,50,53.4336482242,-2.9301356414
Montpellier,728.3401998125629,44,43.61606969113637,3.8698868736136363
Bremen,724.5365085511343,66,53.08879353166667,8.768708984469697
Plymouth,724.4430284223935,48,50.39366642854167,-4.09962852325
Warrington,719.0740202484999,38,53.387618105,-2.5775550978947366
Aachen,707.6311400376973,34,50.76922361264706,6.0805035017647056
Brighton,705.3515024094776,53,50.84338343622642,-0.09774207190113207
Wolverhampton,698.17117459775,33,52.61002850787879,-2.1560865706666665
Düren,695.3700720750186,17,50.79106413058824,6.449648906764706
Vigo,695.1095595859415,28,42.218743717857144,-8.726714839892857
Rochdale,691.7952985906335,35,53.62958718857143,-2.179547865314286
San Fernando,675.2217370296172,34,36.45515481,-6.200303708
Beaujeu-Saint-Vallier-Pierrejux-et-Quitteur,674.4127331839247,19,47.44514318,5.583592201
Derby,672.7094425350613,53,52.91375829150944,-1.4753129271509433
Bielefeld,669.2204338254489,39,52.0121932025641,8.558059143871795
Vitoria-Gasteiz,663.4431806287051,27,42.85612766370371,-2.683414896629629
Terrassa,658.1390834029435,39,41.565280851282054,2.017536056102564
Bad Segeberg,638.9326377714468,11,53.94117862,10.31069069
Recklinghausen,632.7117427940932,27,51.60730233666667,7.209889511925926
Reading,629.0775700663671,36,51.465426658888894,-0.9792762842333332
Annonay,624.0533714107779,12,45.25212981000001,4.644424853
Vénissieux,616.1488324968387,16,45.70424673,4.881208218
Hyères,606.1476991772308,8,43.10105626,6.190730405
Huddersfield,604.2293870234222,23,53.65345822608696,-1.8154111538695654
Ilford,599.7806185955567,39,51.58114733205128,0.08027151136538462
Cornebarrieu,589.767003598188,10,43.66003764,1.319418641
Burgos,588.176254528386,43,42.35503805465116,-3.6880556660232555
Mataró,588.0085108379426,34,41.5459159117647,2.4442041005588235
Almería,587.7891719469688,28,36.859080830714284,-2.455144525357143
Leuven,579.030472183696,25,50.8821059764,4.69852562948
Augsburg,577.9350690431597,44,48.3536533875,10.887570723863636
Bolton,577.0579318360412,51,53.586521551960786,-2.4322346683137255
Perpignan,576.515634190733,30,42.69112702666667,2.899822487333333
Colchester,574.5550078222749,37,51.90955418621622,0.8955897586216216
Moers,574.4611601836192,21,51.46683968714286,6.618867395190476
Granada,574.4185140241615,49,37.17868264081633,-3.6002869049795914
Welwyn Garden City,574.1026758745471,13,51.79607095000001,-0.1841749149
Jena,573.0384966558275,29,50.9173623924138,11.578592023448277
Erkrath,566.5466293441116,24,51.217380819999995,6.927811762
Castellón de la Plana,566.2559511236765,43,40.007585172325584,-0.050724756210232556
Hagen,566.0120941985244,18,51.36574442222222,7.468119174944444
Oviedo,554.0856355291716,38,43.37637068026316,-5.843625898368421
Karlsruhe,552.3669229220399,48,49.00905834708333,8.386105407958334
Cambuslang,552.0760740129131,24,55.80034537,-4.129262636
Alboraya,550.2015982293241,6,39.49632889,-0.3399196029
Getafe,546.4550903871188,25,40.2960071052,-3.72141179588
Lille,545.6178121543167,45,50.634067159111105,3.052107223266667
Rugby,545.5610116786977,18,52.37752550055555,-1.2493611234444444
Gelsenkirchen,544.8876349407603,31,51.562791613225805,7.082699103580645
Charleroi,543.0994769433719,38,50.41671214973684,4.447477437684211
Boulogne-Billancourt,537.9763353188968,43,48.83637238,2.2391881
Brest,533.9990173160819,33,48.40012992,-4.502250492
Ludwigshafen am Rhein,533.0488986911707,30,49.482472732,8.3975523229
Bridgwater,532.6689975619438,15,51.1377369,-3.010095059
Marl,529.0890233173558,34,51.681608475000004,7.120899852352942
Hagley,528.229618528949,10,52.40965717,-2.114237753
Jerez de la Frontera,526.5732897715995,36,36.67944860083333,-6.136806250083334
Argenteuil,526.2433007919583,28,48.95150116999999,2.240406645
Herne Bay,524.3684323371785,15,51.35522123,1.136634978
Bath,522.8242378221021,25,51.351692804,-2.38130322752
Gateshead,521.8943903548709,28,54.93603772714285,-1.5695111307857144
Buckley,518.9407694935429,20,53.16673452,-3.186694671
Sant Cugat del Vallès,518.8996922906659,30,41.476589493,2.0621453375999996
Bradford,516.3810322965635,22,53.789819724090904,-1.7561633691818181
Choisy,513.9738294933759,17,45.95698747,6.04456736
La Línea de la Concepción,509.0494005485229,15,36.18225236,-5.350750779
Dagenham,508.2188544026928,36,51.55010158111111,0.1499019175972222
Portsmouth,507.55405164579287,23,50.820043965652175,-1.0737653528695652
Cardiff,507.11159496995737,35,51.489279632285715,-3.2137996534
Wakefield,505.8803076535091,25,53.67106073200001,-1.4984078081999999
Vic,503.9572145179411,20,41.92276497,2.237641929
Albi,503.11579418759067,15,43.925733310000005,2.147368869
Arsac,499.3929385010644,29,45.04254059,-0.6869426177
Arnas,497.87083370993633,32,45.99253226,4.701283484
Belfast,497.82379708352823,36,54.57897989666667,-5.962561400333333
Bonn,493.02525509442717,37,50.69495045351351,7.126199481513513
Hasselt,492.89067067026593,21,50.934021885238096,5.332167432285714
Harrow,492.6653152141641,34,51.59177889147059,-0.32874916705588236
Sunderland,491.2527965050906,35,54.88125560057143,-1.4100616774857142
Luton,490.058785506385,48,51.90969181166667,-0.42720370476249997
Aulnay-sous-Bois,489.9049714927899,19,48.9459972,2.493332165
Besançon,487.6183547935039,34,47.25523087,6.019330004
Mechelen,487.18213823174824,29,51.035449735862066,4.463245682068965
Lincoln,484.85785665970826,32,53.226703485937506,-0.585519322878125
El Grao de Castellón,482.5808055142525,24,39.97762727,0.003423831759
Frechen,482.33396501954246,13,50.913580089999996,6.784113233
Aschersleben,482.11848172302905,23,51.7718135,11.479987330000002
Levallois-Perret,480.2341100365626,25,48.89517176,2.28691042
Newport,477.6903828828753,19,51.53912397105264,-2.899078350473684
Ennetières-en-Weppes,477.68467448918904,13,50.62058862,2.9505536690000005
Northampton,477.28909196476064,33,52.25090807121212,-0.8954926306727273
Erlangen,476.05814735640513,26,49.58066349153846,10.966433889230768
Las Rozas de Madrid,474.98931955889606,35,40.517976287428574,-3.8891518616857144
Rennes,473.7662392209005,40,48.10858736749999,-1.6817755152499998
Uccle,472.63736535468104,22,50.78978926,4.361416796
Santander,470.1703081099403,22,43.46003225272727,-3.8435264980454544
Esslingen am Neckar,469.81238253661115,19,48.73876803473684,9.302372912842104
Cholet,468.513514476601,17,47.0454836,-0.8775081202
Eaubonne,467.2876747003176,14,48.991041329999995,2.277505031
Orsett,465.95071116782844,14,51.50445778,0.3540476401
Seraing,465.1198934447994,27,50.5950864537037,5.512994840592592
Villena,463.4492060961439,9,38.63168798,-0.8635861483
Saint-Denis,460.80962914567823,35,48.93185365685714,2.359400108285714
Bréauté,459.36136818899786,9,49.65254242,0.3996496476
Herstal,459.26906341656905,23,50.67930314,5.624047445999999
Reims,455.88398516843944,35,49.25173891,4.040074839
Lowestoft,455.759421165201,23,52.46764648043478,1.7035009341304348
Willebroek,455.7150549964417,14,51.05399129,4.36858267
Blyth,454.6386996193412,21,53.52140594857143,-1.1505092266666668
Mozé-sur-Louet,453.2779500262052,8,47.37586014,-0.5378335915
Clermont-Ferrand,453.26008437565616,33,45.792392102424245,3.1150000776363633
Langenfeld (Rheinland),452.16649937136117,23,51.11086937,6.956986549999999
Rouen,450.35590618918286,23,49.43768051521739,1.0847071987826087
Le Havre,449.21078444121025,38,49.49256834868421,0.14513421241578947
Braunschweig,449.04213282673675,40,52.279982294750006,10.51541894575
Manresa,447.11883840748857,26,41.72401535269231,1.8403398951538463
Ixelles,446.4677452262075,18,50.82227201,4.376748342
Horsham,446.01145861599457,14,51.07279093428571,-0.34139296505714284
Trappes,445.31507692930205,5,48.77581657,1.994270462
Maizières-lès-Metz,441.3403070221067,21,49.2044202,6.153062312
Thiais,441.25720005618933,17,48.76084558,2.385484766
Fürth,440.1643250469571,27,49.493952029259255,10.964091832962962
Arles,437.7926725523133,6,43.5999677,4.63339612
Angoulême,433.1452525500205,22,45.647128329999994,0.1500816013
Magdeburg,429.71776636016466,25,52.11014187200001,11.678703874
El Prat de Llobregat,429.5302160271974,15,41.31027344000001,2.096241634
Elche,426.77656758928737,30,38.27116099333333,-0.68085815616
Romford,425.25859510382986,14,51.58724840285714,0.19560101225714285
Dijon,423.3372900349476,30,47.32287207,5.037559812
Nuneaton,422.56420364975895,27,52.52060636481482,-1.4747656279629628
Catarroja,422.1693016132789,13,39.39553449999999,-0.3962602117
Logroño,420.8233944648115,25,42.4611922356,-2.4341707716
Mülheim an der Ruhr,420.19995238730615,24,51.411296040416666,6.909679503791668
Shrewsbury,418.85186754884194,10,52.7007603,-2.787030744
Salamanca,417.32155671473106,26,40.95917409038461,-5.671974882076923
Espinardo,416.72487957192664,9,38.02742801,-1.157136604
Orange,413.16058472128424,12,44.146419689999995,4.808260951
Antibes,412.61276206376033,13,43.594956263076924,7.10185933023077
Barnsley,409.9694198159824,28,53.558296142857145,-1.4512584542857143
Trier,403.3163438169991,23,49.75886272260869,6.64088046852174
Hamm,400.7544260737068,34,51.66073765676471,7.792346514441177
Paderborn,400.2625580060426,37,51.735724092432434,8.75235409672973
Aberdeen,400.14869743620267,29,57.13687857137931,-2.1823791679655176
Metz,400.0722604783424,20,49.118568862000004,6.1985996854
Alcalá de Henares,400.07114832824084,30,40.49011951566667,-3.3675796277
Bressolles,398.1981448626596,5,46.57054068,3.279516119
Talavera de la Reina,397.27148493779004,19,39.95638658,-4.80601686
Thornton Heath,397.0052571709731,13,51.40017987,-0.1063308155
Leverkusen,396.75224453304025,30,51.042295929666665,7.021834259533334
Puteaux,396.36602031349753,16,48.88354734,2.238800875
Pontypridd,396.1121543885018,11,51.61750838,-3.348821715
Cieza,392.60955411481086,10,38.27373194,-1.470852888
Favières,392.46306601245226,19,48.74496384,2.757913828
Limoges,390.3035928494377,16,45.851854485,1.2640898222499999
Wiesbaden,388.37236187858934,31,50.06743021870968,8.282099617032259
Erfurt,386.66327178834604,22,50.97747127454545,11.077869068636364
Potsdam,385.63947648035946,29,52.423314218965515,13.035608209310343
León,385.17328132706393,20,42.5854947645,-5.58819876835
Aubagne,384.17679458688303,11,43.29365154,5.563217895
La Coruña,383.39295116821296,27,43.34758258555556,-8.420495024407407
Havant,380.75789544230025,15,50.87791297,-0.9634086268
Sint-Jans-Molenbeek,380.2357797883756,22,50.85524166,4.318431061
Moncada y Reixach,378.9898148774905,15,41.48953526,2.184660816
Pomponne,378.62155125923846,13,48.88198097,2.702654673
Sucy-en-Brie,378.3620884628234,7,48.76569893,2.533304974
Mairena del Aljarafe,377.55993390622103,14,37.33846012,-6.067255066
High Pittington,377.17823144410863,14,54.75356005,-1.468963255
Aalst,376.36119271649017,33,50.94113807909091,4.056287143303031
Grand-Champ,374.8788022030289,8,47.7747917,-2.836523129
Schwerin,374.8683001865099,23,53.58733133173913,11.409768879565219
Rueil-Malmaison,374.70022805552577,18,48.86944274,2.177571558
Mainz,373.210954018548,28,49.978878356428574,8.253152853178571
Hildesheim,372.1867894917727,28,52.14755584928571,9.944258196392855
Neubiberg,372.05465555493714,9,48.07843796,11.64339539
Calais,371.89716669361,22,50.9503085,1.875995684
Minster on Sea,371.43178769464237,19,51.39698717,0.8410579121
Korschenbroich,369.5137727547533,6,51.18567847,6.549303337999999
Falkirk,367.5872103273026,24,55.98848804,-3.7811923315
Liège,367.4849295019437,28,50.631233841428575,5.5887294091071436
Selston,366.7247444229984,16,53.03325095,-1.292581706
Móstoles,366.4748076431627,28,40.32093976892857,-3.894116197821429
Newcastle-under-Lyme,365.6725444274323,25,52.99008619999999,-2.272493886
Chiny,365.09880626846876,6,49.712015009999995,5.373388985999999
Hedge End,362.6599753289777,23,50.923492669999995,-1.301088397
Lanark,362.63141629163835,10,55.64585595,-3.7793409490000003
Parla,362.46194947093153,21,40.228268088571426,-3.7627105353809522
Erkelenz,362.2531927091985,20,51.06768177,6.338990035
Torrent,357.74162222156474,27,39.418035860740744,-0.4908937044518518
Tornesch,357.1036925199038,17,53.69080405,9.676505974
Regensburg,356.88765881552,18,49.008633335,12.118863445
Rösrath,355.59914428584386,22,50.90602978,7.183498592
Roche,355.4839661766424,16,45.615157178749996,4.266118187125
Bruchsal,353.4684731279833,12,49.103546060000006,8.600319895
Reinbek,353.38987118277987,22,53.53054719,10.26368748
Itxassou,351.4898400078914,15,43.32506145,-1.429733645
Würzburg,351.2411827171598,30,49.764118020666665,9.9478782633
Kidderminster,349.937339827334,17,52.38717748352941,-2.2209433893529416
Castillo de Viñuelas,348.86772604392297,16,40.55287427,-3.767395151
Can Fosalba,348.848701544292,20,41.54909842,1.853994735
Tortosa,348.53243959600223,11,40.83572116,0.5362483274363637
Es Pont d'Inca,348.3990118888904,13,39.62375726,2.728554461
Freiburg im Breisgau,348.2537494916627,29,48.002635069310344,7.8271341217241375
Richmond,348.03722481463285,18,51.45921682555556,-0.29090286764444445
Erding,346.6966555241818,25,48.30624641,11.91419491
Ouffet,346.67352557047707,6,50.44472388,5.465697501
Mercury,345.71514391644405,12,45.67474692,6.369770708
Littleport,344.7974497983953,13,52.41022128,0.1983299696
Sartrouville,344.51275764675523,23,48.93980943,2.17446616
Leganés,343.2749905063779,17,40.33160433470589,-3.7619611288823527
Grevenbroich,342.9571486943407,19,51.067212750526316,6.589273570368421
Cádiz,342.725254272785,12,36.511440015,-6.2728835431666665
Wiedemar,341.63582073050804,9,51.51316548,12.36177991
Molins de Rei,341.0705972965251,8,41.42075923,2.037954316
Dudley,340.19941953290737,24,52.51539804916667,-2.1325295087083336
Pamplona,339.28839153269905,40,42.820274868249996,-1.6609666883999998
Unna,339.04460004600077,16,51.54143288375,7.7273530228750005
Torrejón de Ardoz,338.9534203405876,21,40.46996274,-3.457840796
Singen (Hohentwiel),338.8697032659399,21,47.76073916,8.870281769
Arrigorriaga,338.8191414832998,13,43.20567786,-2.894398044
Ivry-sur-Seine,337.81585424550707,21,48.81227241,2.387726901
Cusset,335.8814517104932,7,46.13899992,3.518416972
Stocksbridge,335.0220240501126,12,53.487935029999996,-1.698339602
Hayes,334.47171320925037,13,51.518295426923075,-0.4129895907538461
Bartestree,334.46681100858933,6,52.07222178,-2.624546328
Telford,332.5428751934972,22,52.70536134636364,-2.471896848818182
El Paraíso,332.5326426478146,7,36.47025423,-5.029864593
Yecla,332.4570149597083,16,38.6439043,-1.169653792
Monheim am Rhein,331.8443363176481,11,51.09618489000001,6.892344465
Guadalajara,330.29665422552057,25,40.609510554799996,-3.15621823668
Alsager,326.95285104016756,25,53.08366244,-2.274465226
Alcalá de Guadaíra,326.0044705131427,19,37.29034196,-5.806239006
Ipswich,325.8708264690193,30,52.060441571666665,1.1674335652
Saint-Médard-en-Jalles,325.70603817354475,13,44.90585401,-0.7931434604999998
Lichtenfels,325.0111280277657,7,50.13818815,11.084425480000002
Tres Cantos,324.9536779007008,11,40.61029677,-3.7294199540000004
Bruges,324.47579940875863,13,50.24426260538462,2.6167804422923076
Benalmádena,324.20332722743245,18,36.59358456555555,-4.5571160308888885
Aix-en-Provence,324.05270630810577,23,43.525441470000004,5.427683535913044
Aberdare,323.2861369044484,22,51.768653879999995,-3.5141668340000005
Lemgo,323.23539068510456,19,52.03371957,8.90190843
Bury,323.05308122667554,14,53.607482888571425,-2.295096360428571
Rostock,322.7202456385219,23,54.12117146043478,12.144287809565217
Sanlúcar de Barrameda,322.48277424278143,23,36.79574927,-6.298176524
Dundee,322.2360925357794,16,56.5058544275,-3.025529342875
Arcueil,321.815251279287,8,48.80540696,2.334007801
Beauvais,321.49643203588306,27,49.427223080000005,2.08470235
Muret,321.4257714615697,22,43.45625875,1.284836671
Rubery,321.3087531869686,15,52.38214722,-2.00372915
Châtellerault,321.0879490116718,21,46.81738057,0.5815553042
Lambersart,320.28762830393373,10,50.65181852,3.025779357
Solingen,319.018379574641,26,51.157752855384615,7.024158375999999
Marbella,318.71115930652496,20,36.513004087999995,-4.9180562898
Doncaster,317.84422437788,32,53.530395143750006,-1.16734162871875
Elda,317.70273155110294,18,38.47490264,-0.8207026736
Goussainville,316.5114465390588,14,49.04043664,2.4568321219999993
Boston,316.3899436959102,12,52.97428516,-0.01948430641
Alcobendas,316.3554447133551,27,40.5365863562963,-3.638206652888889
Monforte de Lemos,316.24597662034404,6,42.52390455,-7.515421327000001
Alcorcón,314.00822313146756,28,40.351431915,-3.8291161086785714
Lutherstadt Wittenberg,312.9942351609901,13,51.87321126,12.60400794
St Helens,311.93455779460277,22,53.45904816727273,-2.753719170727273
Solihull,310.9928649708283,17,52.42216074411765,-1.7437098723529412
Lens,310.95291950603087,6,50.43590442000001,2.81996747
Creil,309.7518659081409,16,49.25338696,2.484068832
Lünen,309.39106976405805,23,51.605605984347825,7.481752593521739
Boadilla del Monte,309.3284504931105,16,40.411269765,-3.8749018351249997
Paisley,309.09871048188097,13,55.81839055,-4.444828392
Frome,308.9892675103932,7,51.22044589,-2.343222924
Banbury,308.5855355085628,7,52.06018086,-1.3407500989999999
Oliva,308.5589345423977,16,38.89670835,-0.1043537399
Huelva,306.84863656472504,25,37.2668051512,-6.94430972272
Stafford,306.4947571075766,20,52.809546736499996,-2.11380169385
Rheinberg,305.7853321388811,19,51.55599442,6.610059723
Rendsburg,305.48913181440986,10,54.30230613,9.654852572
Offenburg,304.81633157766686,8,48.4985427375,7.93919982575
Blieskastel,303.925489364572,8,49.21503059,7.26368383
Reus,303.85587325363946,23,41.1516210273913,1.1319288843913042
Park Gate,303.76461166978163,15,50.8735173,-1.29937583
Höxter,303.52387848807706,21,51.78645244999999,9.344595951
Gerona,302.5042445749822,8,41.9726617675,2.828574205625
Mulhouse,301.71674234816527,28,47.75081957285715,7.316479872214286
Mollet del Vallès,301.6484884954055,17,41.54482433,2.212987255
Heilbronn,301.470528973183,26,49.17022744038461,9.176461141692307
Silsden,299.13768755274816,15,53.90672165,-1.958294389
Southport,298.8607983312197,26,53.645227755,-2.9716016875
Earley,298.51740457754073,17,51.43950082,-0.9256296224
Menen,298.038895358045,23,50.79247802999999,3.1543928160000005
Figueres,297.5891045448182,14,42.27066451,2.970667022
Inverness,297.26170401017316,6,57.30355194,-4.302993723
Rainham,297.1246683855253,16,51.440638050000004,0.404040534
Walsall,296.8460875854678,23,52.606873041739135,-1.9818323085652174
Macclesfield,296.36572915990155,18,53.29419552,-2.12709757
Coatbridge,296.0888602235812,10,55.86977981,-4.037272883
Balingen,295.9310899070016,24,48.265847830000006,8.86250296
Malville,295.01830004571104,14,47.34302243,-1.935374034
South Benfleet,294.6894934797276,20,51.55937831,0.5864351969
Cornellà de Llobregat,293.84408528166705,15,41.35530941,2.076669723
Villafranca de los Barros,293.76778907773985,8,38.5867935,-6.339230252
Pinner,292.9440150666897,18,51.59760535,-0.3844194939
West Bridgford,292.88785883145727,21,52.93282147000001,-1.128626194
Wernigerode,291.5960540319956,14,51.84366289,10.79697174
Greenford,291.5847012345474,15,51.53865706,-0.3375296934
Coupvray,291.1519873563159,12,48.863446509999996,2.796725574
Aylesbury,291.0736717555288,11,51.80517055999999,-0.8032049762
Halifax,290.58868902529343,17,53.738499540588236,-1.8692543030588233
Dunkerque,290.27551084577607,24,51.03141357916667,2.3622303310833335
Worcester,289.7336176021046,15,52.19408558,-2.258875703
Kempten (Allgäu),289.6122157626705,16,47.74151591375,10.317033711250001
Widnes,288.5181065470456,20,53.3775874,-2.740145055
Schwerte,288.5005222498215,13,51.43018661,7.576644562
Wemmel,288.32949712402296,4,50.90962307,4.309408999
Collado Villalba,288.04653913673855,17,40.64121247,-3.9884418160000004
Westoning,287.70896873349085,4,52.02709995,-0.4526957116
Roeselare,287.00925911288556,22,50.93686928,3.133524344
Sinsheim,284.66539846068264,17,49.23806741,8.87969714
Longages,284.50691456798717,7,43.36082231,1.276488932
Saint-Cloud,284.3334098861786,16,48.84255454,2.208760566
Pforzheim,284.1459755267802,21,48.911924039999995,8.707916561
Maidstone,283.82868665765744,31,51.248324344838714,0.5069759957419355
Sarreguemines,283.8246272746731,15,49.1056943,7.118171278
Frankfurt (Oder),283.16342211868954,13,52.34187006846154,14.460868014615384
Etterbeek,282.10738271413425,20,50.83292587,4.394503598
Almendralejo,281.6049151136409,11,38.70835739,-6.409800166
Amposta,281.49894430337554,18,40.67689271,0.6373682992
Carpentras,281.29011910260084,9,44.05945149,5.061388914
Darmstadt,281.18921475396075,14,49.877972213571425,8.65046130357143
L'Isle-Jourdain,280.6140320693962,19,43.60069906,1.078185034
Mouscron,280.42706918111054,20,50.735928332499995,3.2418393052999996
Kleve,280.3951495450432,16,51.80295582,6.124875556
Castleford,280.2399809543646,9,53.73227588,-1.342757632
Hastings,280.2095210724948,10,50.86898998,0.5473651164900001
Tübingen,279.4358550165303,19,48.503545624736844,9.047373735631579
Waregem,279.33357841395417,10,50.882271152,3.3769085924000004
Savigny-le-Temple,278.6492040007421,12,48.58542329,2.563284426
Clacton-on-Sea,278.56949955226855,13,51.79832724,1.156252262
Étoile-sur-Rhône,278.00622838937375,6,44.83299015,4.890333765
Viry-Châtillon,277.9353659867087,10,48.6693933,2.373354556
Seseña Nuevo,276.64978439388483,4,40.08968948,-3.643111212
Earl Shilton,275.7645670080327,8,52.58248418,-1.279357432
Neubrandenburg,275.4866117883425,17,53.554507506470586,13.259940735294117
Cavertitz,275.2475456923589,8,51.33891023,13.12216866
Plourin-lès-Morlaix,275.1723308893134,16,48.55666043,-3.824909261
Balen,274.4637402855859,4,51.16629372,5.189569334
Preston,272.9585973325112,28,53.76791180642857,-2.697177516928572
Beaune,272.51531444884563,16,47.0094592,4.883532435
Sambreville,272.4119413420369,10,50.44646456,4.62065093
Ingolstadt,272.03910217379206,35,48.764106042571434,11.399064484
Majadahonda,271.9290138034656,17,40.468984861176466,-3.882563056
Oldham,271.3100324441852,14,53.542351135714284,-2.066710242285714
South Normanton,271.02619759696887,15,53.11241139,-1.387810358
Żagań,270.8561315784953,26,51.65669948,15.04893938
Grasse,270.532251863402,18,43.65437597,6.930507884
Blackburn,270.3343466216828,18,53.760278985,-2.4958672424999997
St Albans,269.77756256446077,31,51.77486561064516,-0.34500721670645157
Plumergat,269.4088203056713,13,47.69113757000001,-2.972216882
Chambéry,268.71311117029194,14,45.57065631,5.915071157999999
Guecho,268.5149034201392,19,43.348548255789474,-3.0085980494736844
Algeciras,268.40476278085936,21,36.12845764095238,-5.464237267
Saint-Martin-d'Hères,268.0513057534977,14,45.1762261,5.765063481
Montrouge,267.34529458197323,12,48.81524364999999,2.317225811
York,266.93902750519624,16,53.98697355875,-1.1438383099375
Maidenhead,266.2138524276047,19,51.51876851,-0.7406173897
Tournefeuille,266.13803087945445,12,43.57822085,1.335139957
Geraardsbergen,265.3040218283374,5,50.780551956,3.9061549585999997
Neuville-sur-Sarthe,265.2917849642509,13,48.05799334,0.2224537886
Gennevilliers,265.2216353144889,10,48.93456013,2.293960726
Schleswig,265.07756054354235,12,54.519770560000005,9.558870661
Lérida,263.58157270390103,14,41.62674800142857,0.6419938680714286
Beringen,263.40153386260897,19,51.06995319263158,5.251156320789474
Navalcarnero,263.0996671279748,13,40.28870117999999,-4.014147697
Llanelli,262.52061775481246,11,51.74243658909091,-4.1589247816363635
Malmedy,262.25881127798596,11,50.42818286,6.038248578
Pau,261.7546397990718,22,43.3198942,-0.3502121493
Sevilla la Nueva,261.65709202801804,6,40.35790759,-4.090462063
Noisy-le-Grand,261.4623960895417,25,48.8362555,2.5647031659999997
Nienburg/Weser,261.2997533909457,13,52.63922409,9.233129079
Stourbridge,261.2372642090736,15,52.45246221,-2.1560132840000006
Weston,260.5565138596438,6,51.906285450000006,-0.2545046543
Dorsten,260.07944889659444,19,51.71020603894737,6.990092541894737
Villanueva y Geltrú,259.99878794161776,20,41.23711691,1.705084688
Stuhr,258.9690988024651,20,52.997906439999994,8.72636141
Winchester,258.60707193275874,14,51.06944296,-1.345678646
Reutlingen,257.74300880946475,28,48.486416643571424,9.186212949571427
Hyde,256.8648461479154,24,53.451675779999995,-2.040023331
Grünheide (Mark),256.612168118162,12,52.41431407000001,13.86579049
La Louvière,256.4400020699672,19,50.46866791157895,4.1732935188421045
Waunarlwydd,256.20066126350457,11,51.69241673,-3.971410184
Rickmansworth,254.87656548905034,15,51.65209623,-0.486273117
Aiseau-Presles,254.55574960214523,11,50.40480641,4.576763174
Bautzen,253.3230401443865,11,51.19051417,14.41346503
Sint-Niklaas,253.2492580180325,19,51.16684385947369,4.1131188022105265
Lörrach,253.1212608738631,15,47.620393112,7.6672938111999995
Blackpool,252.9374062063907,30,53.81937191233333,-3.0212172791
Saint-Symphorien-d'Ozon,252.59355568444005,6,45.62226678,4.846318755
Tudela,252.24171946738372,12,42.14527525,-1.525384731
Yeovil,252.1737788850693,13,50.959319439999994,-2.63238626
Crewe,251.4775975718362,13,53.09171247692307,-2.4193960914615387
Ashford,251.38228355823728,14,51.14305756857142,0.8828336205857142
Azucaica,250.55097054900364,9,39.89152739,-3.9837392470000004
Dunfermline,250.0914485604371,14,56.08499554857143,-3.4930497618571428
Southampton,248.96173848957545,21,50.91613650095238,-1.3939459773809524
Cuenca,248.94262441635126,15,40.04935441,-2.1241103006666666
Kensworth,248.62004964201896,10,51.86378375,-0.5483239166
Brétigny-sur-Orge,248.5174564360453,7,48.60410325,2.3155218330000005
Valenciennes,248.50592015446912,18,50.3419856,3.522435412
Baza,248.31728863148223,12,37.41160112,-2.775542801
Siegen,248.1626896318776,19,50.88242076526316,8.014614347157895
Wuppertal,248.1318088788089,19,51.242488637368425,7.102988610526316
Andernach,247.5452932376986,8,50.43230404,7.371831523
Saint-Jouin-Bruneval,247.09037190013836,9,49.63793115,0.23618729000000002
Agen,245.97573348907213,14,44.20326514,0.6249809412999999
Lampertheim,245.91905223235284,13,49.61686694000001,8.468622215
Gazost,245.89546218954902,10,43.07311352,-0.02828783899
Llandybïe,245.63089292810332,12,51.80512201,-3.943152964
Las Gabias,245.54498538444105,5,37.13271091,-3.696553514
Edgware,244.76613360753646,28,51.59850094714285,-0.26453612228571427
Mössingen,244.35911995574747,4,48.39541718,9.073801465
Stockton-on-Tees,244.32544281217238,24,54.580311415833336,-1.3300769635833334
Papenburg,244.0246489311261,10,53.05639424000001,7.402000533000001
Scarborough,242.65704607952935,19,54.22052604,-0.4556853653
Hénin-Beaumont,242.6551483017737,9,50.40946695,2.959453468
Saint-Romain-en-Jarez,242.44400622912005,9,45.53400673,4.601605089
Bromley,242.37953431791115,15,51.38483122,0.026383392436666663
Namur,242.26430032270244,12,50.45528510666667,4.8629644815
Lohne (Oldenburg),242.0787612800941,13,52.66150127,8.231384272
Lüdenscheid,242.07698519040622,8,51.1967514,7.628726773
Bergheim,242.0244837477989,7,50.97068678428571,6.641324791714285
Alhaurín de la Torre,241.3584514418283,11,36.66152225,-4.583020815
Schwandorf,240.88671848425804,18,49.31757984,12.08837945
Swinton,240.79627317763465,16,53.512275807500004,-2.20042908475
Vilvoorde,240.508390282524,13,50.93013126,4.433805443
Stratford-upon-Avon,240.3212362839368,9,52.17041274,-1.709307731
Newton Abbot,239.14349452547492,16,50.52783966,-3.629783023
Wick,238.71228068081766,15,51.405718091333334,-2.315612320786667
Goslar,238.63989707436076,5,51.90840109,10.41260065
Thornaby,238.4031180765245,16,54.53455693,-1.297504388
Castres,238.09280746130784,13,43.62201795,2.258800905
Stowmarket,237.8246975831384,15,52.21336977,1.064557185
Retford,237.57863291927808,14,53.324224949999994,-0.9036820917
Burriana,237.54953077877093,14,39.889923880000005,-0.07449557799999999
Xanten,237.42806613823885,10,51.67309623999999,6.433806139
Villeurbanne,237.2067081818869,27,45.77103733999999,4.889034143
Nauen,237.20413278744778,16,52.6133708,12.82112302
Toledo,237.20003893676926,19,39.86662613263158,-3.9921801272631576
Colmar,235.38333101149652,22,48.10975386,7.3846250200000005
Blanquefort,235.3710722567495,7,44.94934568,-0.6187142919
Tarleton,234.64742637924067,23,53.76113117,-2.839416042
Kassel,234.38162183480205,16,51.307116579375,9.474218033625
Villenave-d'Ornon,234.3777399812464,15,44.762111780000005,-0.5461206584
Benidorm,234.33354251953358,17,38.56067347,-0.1447721428
Saint-Pée-sur-Nivelle,234.25318180349853,7,43.33097717,-1.578218439
Tickhill,234.1863413645127,10,53.44843283,-1.103069268
Béziers,233.76945783265177,26,43.34748383,3.230810779
Zweibrücken,232.7156051668669,19,49.24648362,7.365912097
Guebwiller,232.5896368268487,13,47.89714048,7.224131401
Rees,232.37301265629662,5,51.77335622,6.420494659000001
Antony,232.1001490215432,19,48.75002109,2.299055609
Tarragona,231.5600342650547,13,41.1280299223077,1.2487588790769233
Furiani,231.38248138046612,11,42.66340186,9.418513786
Saint-Pierre-lès-Nemours,231.33178532572416,14,48.2749323,2.709304797
Sevran,231.03333601981132,12,48.93867852,2.530645356
Amorebieta-Echano,230.80043585929104,15,43.22648065,-2.72640638
Quainton,230.69491462259862,18,51.83327791,-0.7961132535
Schelle,230.6735514697799,9,51.12258636,4.342914909
Montesson,230.6069122741312,13,48.91722474,2.139921288
Gaggenau,230.37041293319436,4,48.81753423,8.344769736
Sangerhausen,229.96661436831835,7,51.51759003,11.2505041
Ilkley,229.70500062248485,14,53.92793954,-1.819328789
Esplugues de Llobregat,228.6853895086116,5,41.37917088,2.09088658
Arras,228.45145435011622,12,50.28382847,2.740871123
Darlington,228.10308042883824,16,54.54410237125,-1.5681268975
Nîmes,227.72673311211446,16,43.838448871875,4.3399078456875
Rotenburg (Wümme),227.68459849177978,6,53.11488028,9.367957278
Völklingen,227.66891720761603,11,49.22043386,6.802795357
Malgrat de Mar,227.43522357629462,14,41.65057529,2.746475482
Grimma,227.1496987462417,11,51.22939752,12.75766845
Amiens,227.04369208047495,13,49.89027369230769,2.293363988153846
Ettlingen,226.9789134768548,12,48.92727991,8.405874454
Sainte-Geneviève-des-Bois,226.95578873553717,12,48.64023255,2.341132821
Leigh,226.79906164516427,9,53.49636806,-2.52047409
Murcia,226.7329463875366,18,37.97096825722222,-1.1241554027222223
Rodgau,226.7312042581287,16,50.01267128,8.881694442
Laon,226.45811818802565,22,49.55398923,3.593463846
Lingolsheim,225.60789531728602,6,48.55530769999999,7.6818139919999995
Kaiserslautern,225.37279256478905,19,49.42986630210527,7.771842507736842
West Bromwich,225.25336659610937,12,52.53245099,-1.980538652
Villingen-Schwenningen,224.80593522614612,13,48.05646016461538,8.517930298307693
Challans,224.73069295179474,13,46.8367585,-1.893220631
Louviers,224.1867703466449,17,49.18596127,1.139267355
Wervik,223.5365046462414,10,50.81013014,3.056514984
Wigan,223.0629099489446,3,53.52687562,-2.64894365
Ardon,222.85034877443132,15,47.81442557,1.87713082
Castelnau-le-Lez,222.4973041888566,12,43.637783289999994,3.912511304
Bornheim,222.4758981026662,14,50.76822656,6.954937989
Gosport,222.44808029506885,14,50.80960797714285,-1.1693511240714287
Calatayud,222.2884015982939,15,41.35510329,-1.627513536
Bourges,222.28693767162525,8,47.07485457,2.404451802
Rüsselsheim am Main,222.08269664160647,14,49.9826882,8.449663949
Castelldefels,221.84836066037076,13,41.27443164,1.9629406689999997
Gloucester,221.6184712725139,26,51.83405877192308,-2.1962625643461537
Heidelberg,221.2182275527504,17,49.39951397294118,8.646326207941177
Chaumont-en-Vexin,220.6434892504908,9,49.24313963,1.8877485980000002
Versailles,220.41387847686647,21,48.8022495,2.11751606
Pollionnay,220.16824205787998,8,45.75947664,4.684500358
Puchheim,219.8398563909619,8,48.16097965,11.3460994
Armilla,219.71730556630212,11,37.14797868,-3.6192835240000005
Plasencia,219.6042631310339,12,40.04042361,-6.102202981999999
Memmingen,219.0294813412758,8,47.9788053,10.16301079
Peligros,218.57491694330932,5,37.24163914,-3.630212324
Heidenheim an der Brenz,218.198345346551,11,48.730418750000005,10.19348462
Lanester,217.97023751503312,7,47.76725384,-3.3270430269999998
Iserlohn,217.73467364448373,9,51.410128353333334,7.656358682666667
Beveren,217.71149601773485,18,51.274927086666665,4.233285276
Sant Just Desvern,217.6863837057582,10,41.39255753,2.079262467
Highnam,217.47413541534743,22,51.83097046,-2.315698769
Ceuta,217.3938971173492,13,35.88917558461538,-5.331346018076923
Belfort,217.18253370811647,9,47.64693805,6.845400564
Méru,217.12105084939884,3,49.232906719999995,2.130784065
Accrington,216.9782063609043,18,53.74874571,-2.366104093
Hauteroche,214.50491917747092,11,46.65547519,5.580955217
Maubeuge,214.04103971041562,14,50.31189481,3.9896137689999995
Wellingborough,213.86444422330334,18,52.30438812,-0.6921742057
Lanchester,213.50731535362917,6,54.80258952666666,-1.7375966708333335
Vallauris,213.45709492119468,12,43.57639545999999,7.058404506
Romiley,213.2952961143581,8,53.40341376,-2.061430263
Fléron,213.22782687978648,6,50.61767954500001,5.682674832166668
Desingy,213.1821549225951,4,46.01975201,5.929658443
Ratingen,212.58477851006626,14,51.341368534285714,6.861316169571429
Chatham,212.384559617497,14,51.36091251142857,0.5287437113571428
Val-Suzon,212.23255834461003,5,47.39379799,4.95500538
Newry,212.13014823257294,12,54.15824995,-6.364721334666666
La Roche-sur-Foron,212.10607708653075,9,46.06249943,6.318997107
Kaufbeuren,211.92412690334243,13,47.88016754,10.61634203
Landen,211.8790323535195,6,50.751614896666666,5.055474528666667
Auderghem,211.30588099231372,14,50.81014007,4.438397549
Bletchingley,211.17287734569223,9,51.23077683,-0.1298508294
Oudenaarde,211.1456890799942,11,50.85348449,3.62104013
La Seyne-sur-Mer,210.8736428728841,19,43.08925535,5.871182409
Clermont-l'Hérault,210.6215144955889,16,43.61379132,3.380650246
Le Loroux-Bottereau,210.35361491494692,13,47.22576667,-1.295684559
Carquefou,210.0666150697437,11,47.29995839,-1.4500938
Ottignies-Louvain-la-Neuve,210.04207778392953,18,50.67276212611111,4.603249387
Liévin,209.81050852180493,8,50.42436233,2.772772599
Horwich,209.76846696741322,11,53.60111378,-2.537925186
Jouy-le-Moutier,209.5761121497722,14,49.01096777,2.033425713
Toulaud,209.33532011294395,3,44.93188324,4.812536266
Erith,208.90980340465597,7,51.47557276,0.1838400043
Azuqueca de Henares,208.76507973773138,15,40.556705,-3.262968257
Exeter,208.72735167373492,18,50.71567488888889,-3.538643526111111
Schorndorf,208.68718314254158,13,48.79859769,9.529662911
Cranwell Village,208.41393316029715,13,52.95597023999999,-0.37176996949999996
Vétraz-Monthoux,208.36966012468173,15,46.18924654,6.248929623
Abbots Bromley,208.18368970086567,10,52.77699928,-1.9025981270000003
Beersel,207.8827459582997,11,50.75119113818182,4.311884369090909
Pirton,207.75053206906932,18,51.97089846,-0.3213103356
Bottrop,207.6645218496644,17,51.53531341294118,6.927777520176471
Treis-Sants-en-Ouche,207.13928601437655,6,49.10022197,0.5973543445
Cobatillas,206.57663940833694,9,38.0674134,-1.103234884
Sant Andreu de la Barca,206.451871629345,14,41.4512666,1.964005133
Syke,206.23718577468225,7,52.91004027,8.846252684
Stutensee,205.9166182683534,6,49.09137588000001,8.47609123
Fontenay-sous-Bois,205.9037555470693,14,48.85119126,2.474030392
Fuenlabrada,205.71611382829957,29,40.29255358103448,-3.808492443448276
Castrop-Rauxel,205.71519684149695,11,51.59353717727272,7.314223949545454
Bernburg (Saale),205.42727936957363,5,51.77502486000001,11.76798991
Rothley,205.37303416410194,11,52.65630655999999,-0.9855789377
Evere,205.28529516096705,13,50.86992785,4.408425828
Kiel,205.131473740766,12,54.32755696500001,10.123076357499999
Cambridge,205.11347258778366,10,52.213550010000006,0.15063720326000002
Leighton Buzzard,204.71573032005057,17,51.90499238,-0.6688699345
Mitcham,204.56074460233043,14,51.40053615,-0.1552612563
Le Bas-Ségala,204.48713013998338,9,44.33208606,2.012699471
Annecy,204.17360049306774,32,45.8873675346875,6.11652353228125
Tarnos,204.08718094144237,8,43.53713417,-1.465910658
Fernelmont,204.06363961082766,11,50.55392135,4.987219669
Stanley,203.9496971465324,12,54.87160404,-1.703082279
Surgères,203.84712031695258,11,46.11662032,-0.7265611502
East Kilbride,203.82744730030987,11,55.75822650181818,-4.188929990818182
Coslada,203.7563638597633,17,40.428897464705884,-3.562726023705882
Bracknell,202.94070130032148,15,51.40512293,-0.7520218308
Hockenheim,202.92133593154168,11,49.32798151,8.530402535
Saint-Étienne-de-Montluc,202.89305019878586,3,47.293169119999995,-1.7743691020000003
Fréjairolles,202.88142490771727,5,43.89420188,2.179788731
Laplume,202.63874767614686,7,44.14028275,0.538741855
Trowbridge,202.58684909684956,14,51.32018415,-2.18245882
Meudon,202.37028977848698,13,48.80444694846153,2.227741467307692
Ourense,202.2795080970637,19,42.3424691168421,-7.866616153052631
Sitges,202.25882638071516,8,41.25668957,1.855038829
Saint-Désir,202.22426226759876,8,49.13090339,0.2588038104
Castro Urdiales,202.19230420001733,7,43.356715380000004,-3.244279562
Landau in der Pfalz,202.09211933569844,11,49.19514718,8.099808066
Saint-Planchers,201.9616730668036,9,48.836986,-1.556185464
Cramlington,201.8401668473402,8,55.07942936,-1.591263944
Sainte-Gemme-la-Plaine,201.59507311344674,10,46.45960072,-1.17445035
Gines,201.57430255672057,6,37.38638388,-6.076881827
Saint-Ghislain,200.56325797116358,7,50.46877041142857,3.819092107142857
Colombes,200.17966161771406,14,48.92274182,2.247061786
Clichy-sous-Bois,200.02653530573173,7,48.90801156,2.546269935
Clitheroe,199.49640036166844,5,53.92697434,-2.421374239
Royal Tunbridge Wells,199.45762049936263,12,51.14640189,0.28133669224999996
Hemel Hempstead,199.42469791830982,16,51.7502139525,-0.47426475390625
Corbeil-Essonnes,199.13902436703486,16,48.59864736,2.464387379
Boissise-la-Bertrand,199.0563695568107,7,48.53505266999999,2.607189886
Eastleigh,198.86743251399326,20,50.97182697,-1.324558572
Stevenage,198.85995411656927,13,51.90968042,-0.1998428338
Mildenau,198.48222840119166,11,50.57672023,13.053681839999998
Loughborough,198.28579704072862,11,52.76523058,-1.226790536
Ath,198.2469049190919,16,50.65258368,3.811778027
Shaw,197.90002390977497,10,53.577130239999995,-2.100384017
Barsinghausen,197.8205255448175,11,52.32565236,9.480589508
Gifhorn,197.77306377482807,16,52.50604315,10.5235786
Aspull,197.51429580821824,14,53.53924049,-2.585248242
Schönebeck (Elbe),197.51230240110254,14,52.01711857,11.73687285
Großenhain,197.48272434933344,10,51.29675949999999,13.632860069999998
Alken,196.85230199682616,7,50.87835672,5.290423604
Göppingen,196.8478321775551,8,48.70117747375,9.64233066625
Villajoyosa,196.6573359781213,14,38.52103342,-0.251530554
Püttlingen,196.5971825402651,3,49.29392683,6.895178156
Altlandsberg,196.5133555302123,6,52.59450485,13.90636121
Asse,196.3554096293978,17,50.89463905705882,4.266607533176471
Utrera,196.29960606505688,15,37.07687358,-5.762407297
Bishop's Stortford,195.9723517202141,8,51.89031666,0.1516042392
Letchworth Garden City,195.88929016669033,14,51.97685230999999,-0.22239772370000002
Ajaccio,195.8889742555289,10,41.93329513,8.6959232084
Carlisle,195.8521080209524,17,54.88064731,-2.956559509
Würselen,195.83837963984453,12,50.82716088,6.15060683
Nueva Jarilla,195.7558152992587,14,36.68548678999999,-5.952290985
Burton Latimer,195.70256595934492,9,52.377585,-0.6855014062
Rinteln,195.68435430339815,11,52.17482504,9.110810792
Bilzen,195.49967368873942,20,50.87168009,5.533341219
Antequera,195.15286601316956,5,37.03252911,-4.575149842
Caddington,194.89410664114155,9,51.86156722,-0.4276466282
Urbanización el Trigal,194.7329624294839,12,39.10657529,-1.86919786
Beverley,194.6088326642544,13,53.85953841,-0.439639537
Dartford,194.15877998498382,9,51.45058268,0.2127559659
Cheltenham,193.9387019751075,18,51.90322366,-2.126776565
Norwich,193.72685215492183,22,52.62661285318182,1.2878690410454545
Gevelsberg,193.68939128007142,12,51.33352182000001,7.340167498
Bad Oldesloe,193.55524460531478,6,53.81235718,10.34882165
Linares,193.3685812180878,13,38.09720603,-3.641732926
Carcassonne,193.15171413841523,5,43.20954151,2.345988484
Walcourt,192.97330553119542,10,50.29095424,4.451338476
Anglet,192.67513483015603,16,43.49106396,-1.515467854
Pilas,192.62116313195995,4,37.30538854,-6.312922333
Greifswald,192.61646148139647,7,54.08393538,13.37298147
Chaudfontaine,192.59454700148834,8,50.578986471250005,5.642316113125
Voiron,192.54773152353673,10,45.36985529,5.598231625
Germering,192.54750338364772,20,48.12900221,11.36026866
Vannes,192.03677802434666,11,47.65963324,-2.757228862
La Algaba,192.0296264686927,8,37.47269419,-6.017518762
Walton-on-Thames,191.90303579240367,16,51.37629429,-0.4056755549
Perth,191.86781265696152,14,56.39334207857143,-3.440250864428571
Polígono Industrial Cachapets,191.35899633028458,12,38.23702584,-0.8147191219
Gijón,191.3271371946581,18,43.52573469611111,-5.692664050444445
Groß-Gerau,191.2694832482095,8,49.91103521,8.477280797
Schwanewede,191.12101272987752,10,53.25037843,8.58597811
Hereford,190.8197451423053,20,52.03389379600001,-2.8382310293
Cabezo de Torres,190.71103451421473,10,38.03873296,-1.133453795
Huércal-Overa,190.61815624295073,9,37.40643926,-1.87983162
Pfullingen,190.56283059212413,8,48.45226087,9.220819794
Coria del Río,190.04840349255608,11,37.24703506,-6.035262648
Hove,189.36008724626907,18,50.84213221,-0.1811249096
Cenon,189.26972275741912,4,44.85490335,-0.521410869
Valdemoro,189.18103074359263,18,40.184150169999995,-3.6590958688888886
Rödermark,188.92990229364838,13,49.973594199999994,8.806498583
Alès,188.91320401218312,17,44.12512264,4.088467449
South Elmsall,188.64282144662724,6,53.61291909,-1.314020706
Dole,188.02041300774295,19,47.08167141,5.476257955
Caixas,188.00839768985406,8,42.60002061,2.761946
Leonberg,187.5842766932166,10,48.79086749,9.007051768
Oberhausen,187.32286551884278,27,51.51493005333333,6.842596390851852
Buckingham,187.0899373590399,9,51.97446085,-0.9683999682
Asnières-sur-Seine,187.05818827246972,20,48.91585667,2.287912388
Bad Berleburg,186.6266505508408,5,51.05504213,8.40618069
Le Raincy,186.4485183292665,4,48.89676538,2.519530051
Leer (Ostfriesland),186.44777748308135,15,53.24355323,7.461184636
Mons,186.327848407417,17,50.486034563529415,3.970678485647059
Hednesford,186.07239528471928,11,52.71675309,-1.995197514
Remy,185.960062187073,8,49.44397669,2.632694065
Bobigny,185.95959494117852,16,48.90746319,2.4398787
Rhauderfehn,185.89833088525873,7,53.12279575,7.547628648999999
Dülmen,185.83365644011286,13,51.84721252999999,7.289211721
Kervignac,185.49938555753675,8,47.76524564,-3.242517464
Worthing,185.4842958540867,16,50.85693175125,-0.39573255412499997
Koblenz,185.25310187806056,9,50.36138054111111,7.539252669888888
Dorlisheim,185.17865107267457,8,48.543337,7.533166216
Chalon-sur-Saône,184.7947561704655,20,46.75343777,4.828897407
Sestao,184.38571749941966,10,43.30827506,-2.999129108
Saint-Étienne,184.33874767409515,35,45.428442736,4.412811450257143
Löhne,184.24898145244575,12,52.1991677,8.722318964
Eupen,183.94665564154744,12,50.60363203,6.137547413
The Royal Town of Sutton Coldfield,183.50349516201598,10,52.581559500000004,-1.8617687520000001
South Croydon,183.47919200449135,13,51.34295458999999,-0.07505288917
North Shields,183.33263352876267,9,55.0104505,-1.46771192
Chacrise,183.13065746576606,7,49.35181227,3.320381571
Redditch,183.09008369501507,15,52.29943157466667,-1.963317099666667
Uckfield,183.03984248689008,11,50.99265238,0.09848736422999999
Mechernich,182.64473317775614,12,50.59125667,6.647776289
Neu Wulmstorf,182.53851483428735,7,53.43151563,9.795750283999999
Barnet,182.3618630395704,29,51.65945673793104,-0.1936506145172414
Le Perreux-sur-Marne,182.3596026811242,8,48.84235629,2.503979804
Pessac,182.29192652253977,13,44.79164609,-0.6765747057
Hechingen,182.11790626821062,10,48.35236291,8.976393414
Oudrenne,181.89627276064158,11,49.36230688,6.274653564000001
Fortaleza de Isabel II,181.83762769420176,2,39.93825513,4.242766522
Irún,181.75667380569124,4,43.32208066,-1.783458824
Bad Vilbel,181.70482249631394,13,50.19128395,8.74822747
Lieusaint,181.54610426851605,15,48.62568561,2.549957876
Vechta,181.34719883695453,3,52.74135632,8.285508012
Vienne,181.2532500309183,10,45.54766767,4.906262503
Osnabrück,181.23559061545174,9,52.28363061111111,8.080199034444444
Runcorn,181.06859341365382,11,53.32403318000001,-2.689730381
Moosburg an der Isar,181.00877811403464,13,48.47671042,11.93053009
Gießen,180.91516907164294,11,50.57658738,8.720634451
Didcot,180.89305337905594,13,51.58231022,-1.246031848
Osny,180.7570298572303,11,49.0679318,2.063264554
Gourgé,180.74123598659313,21,46.67661169,-0.2204195637
Riemst,180.7054531265159,12,50.80538177,5.592095332
Sermoise-sur-Loire,180.69370764848767,18,46.96450008,3.175116836
Cañada,180.67946284908913,6,39.53059227,-0.4949630299
Fürstenfeldbruck,180.45433053119743,11,48.177948799999996,11.229281
Fleckney,180.33270987727263,18,52.54752072,-1.056339403
Mejorada del Campo,180.27870298577324,7,40.40022285,-3.475096322
Derramador,180.2064032700599,14,38.1969764,-0.7179721089
Cottenham,179.9948511382024,16,52.2921189,0.07295315522
Péron,179.64152809108018,8,46.2141145,5.957634121
Gaillac,179.28570717493375,8,43.88116123,1.930004504
Ravensburg,179.22647223271989,11,47.76576038272728,9.618482859545454
Ypres,178.94998006220533,12,50.84817320083334,2.8418749085
Meaux,178.9133707194518,11,48.94151299999999,2.892360726
Cambrils,178.89985750310433,8,41.0825352,1.042313004
Gavà,178.79089463934324,13,41.29455784,1.983724677
Hatfield,178.48513527058003,10,51.76846783999999,-0.24094101760000003
Seillans,178.4413279105443,11,43.62885057,6.716792317
La Courneuve,178.22833468332726,10,48.93215665,2.399412501
Sainte-Pazanne,178.08156802845352,14,47.09998033,-1.835261691
Cumbernauld,177.43654447250168,11,55.94079417,-3.974233414
Saint-Priest,177.33519073251804,10,45.70176868,4.948933897
Bergisch Gladbach,177.22624489019458,18,50.970738357777776,7.181812333888889
Berck,177.0094359716897,6,50.40398341,1.590529525
Avileses,176.7221769487793,4,37.83591597,-0.9283207611
Bize-Minervois,176.63396327345407,5,43.27946003,2.883844436
Brigstock,176.29643052022433,11,52.41280808,-0.6545648799
La Puebla de Cazalla,176.26158864213522,8,37.16233036,-5.275111394
Florennes,175.9141238576546,2,50.2925536,4.557102509
Goole,175.6875928961091,12,53.70645703,-0.9194496613000002
Worms,175.51417188228368,15,49.62766495533334,8.360273907933333
Marville-Moutiers-Brûle,175.39420247537055,15,48.70955774,1.367537997
Genk,175.3926608073873,9,50.96720059,5.494825406
Mably,175.3426122720163,10,46.05918018,4.059645552
Ware,175.09325399107746,8,51.82550215,-0.008301509931
Greven,175.09016741901488,10,52.095141139999996,7.633802284
Saint-Offenge,174.90559908024633,10,45.71134574,5.943290772
Fayt-lez-Manage,174.65386753611838,10,50.49342707,4.238163703
La Guardia de Jaén,174.6381168949819,14,37.76553167000001,-3.7036940800000004
Hartlepool,174.4867625700207,16,54.65257966,-1.211691864
Stralsund,174.40812811698999,12,54.30225128,13.05046744
Bingley,174.3236225486774,14,53.855939920000004,-1.831701101
Vila-seca,173.65948357877062,6,41.10558439,1.135014005
Waldshut-Tiengen,173.62976320063422,6,47.65184854,8.242908912
Le Teich,173.5153978647648,11,44.58464459,-1.046135938
Cabrera de Mar,173.36550060566515,1,41.52581966,2.401182247
Premià de Dalt,173.26887148344434,3,41.50578624,2.344212551
Savigny,173.26456186764005,7,45.82008145000001,4.61355423
Ober-Olm,173.21827313112573,9,49.9236063,8.150894593
La Crau,173.2123124784472,8,43.16357703,6.092888034
Maisons-Alfort,173.14854278160712,11,48.80613274,2.438184222
Saint-Laurent-d'Aigouze,173.140592787579,5,43.56314972,4.219367931
Jodoigne,173.1153491063891,8,50.72840426,4.860310672
Drancy,173.01571523926916,7,48.92346471,2.444618112
Cirencester,172.76083774906112,14,51.72378150000001,-1.880964983
Saint-Maur-des-Fossés,172.7180842780932,15,48.797474436,2.500223171
Lydiate,172.4238264307361,7,53.51625158,-2.935576941
Zeitz,172.40429352581225,8,51.0179874,12.1506012
Wythenshawe,172.39769681022415,18,53.391974599444445,-2.267211749888889
Nancy,172.30105069846041,22,48.68889227,6.178068283000001
Roquetas de Mar,171.86280453813475,5,36.75425187,-2.627763897
Senden,171.48335732098124,10,51.861140039999995,7.500608729
Valdemorillo,171.4388092647223,3,40.50369531,-4.068789882
Whitley Bay,171.4074805111211,7,55.06342491,-1.500993205
Bayonne,171.3933970232754,6,43.49248097,-1.465778447
Portadown,171.29559662143117,3,54.41030012000001,-6.481266316
Melilla,171.25810748554042,10,35.279913484,-2.9443394522
Elven,171.1300610173251,4,47.71631688,-2.60625385
Pierrefitte-sur-Seine,170.93973617050474,8,48.96106206,2.363162965
Bernes-sur-Oise,170.69566363092474,11,49.16072778,2.263926055
Yate,170.67733750523143,10,51.54223774,-2.397075615
Lure,170.53934565336542,9,47.67760254,6.504008495
Huy,170.52402275417668,7,50.5087758,5.222669763
Alfaz del Pi,170.31235220898506,8,38.58598585,-0.09880268661
Geislingen an der Steige,170.0943241253906,1,48.61092228,9.835277916
Créteil,170.0826276379782,17,48.78377069,2.454732837
Camberley,169.8821844293797,5,51.33991060000001,-0.7383932785
Ziesendorf,169.8590982060245,6,54.02729733,12.086439919999998
Messingham,169.7453973330259,12,53.58759021,-0.7525952938000001
Joinville-le-Pont,169.49545227826786,9,48.81957389,2.470812141
Cehegín,169.1366399110189,8,38.02337479,-1.772908002
Bouguenais,169.07328258571067,4,47.17066471,-1.616751163
Swallowfield,169.0500570333235,6,51.395992220000004,-1.089785757
Halle,168.9893332501419,16,50.72155108,4.2332832905
Edewecht,168.5609992041269,7,53.11761641,7.993515474
Feltham,168.55784026690165,7,51.442363785714285,-0.40966205317142856
Bocholt,168.10034691762974,12,51.83737280333333,6.5819352276666665
Rheine,168.0829097150059,7,52.267771412857144,7.474387840857142
Pulheim,168.0349271594324,12,51.00008333,6.784298709999999
Saint-Jacques-de-la-Lande,168.00562647305952,8,48.07617647,-1.72247938
Korntal-Münchingen,167.7960137163546,9,48.84809347,9.102052301
Filstroff,167.74325845380704,8,49.3088934,6.507550881
Le Blanc-Mesnil,167.6526663845684,5,48.93958055,2.461094336
Sedaví,167.5950932002657,7,39.40722781,-0.3660136494
Kehl,167.2314300545056,10,48.57114296,7.849318262
Nürtingen,167.22858411715987,9,48.61941449,9.34047795
Orly,167.13947994829135,13,48.74608557,2.405050959
Le Cannet-des-Maures,167.07037602125928,7,43.38750957,6.301900787
Pontarlier,166.92109668328015,2,46.90298495,6.364296428
Wolfsburg,166.83805382664073,16,52.402009876875,10.769763935625
Wath upon Dearne,166.4186713711392,14,53.52025933,-1.329180225
Velbert,166.3371138444874,13,51.33378234846153,7.080020279846154
Peterlee,166.23724601330252,15,54.77324365,-1.3383231610000001
Aalter,166.06101726189152,8,51.085646733749996,3.47456273925
Bad Schwartau,165.97018902230397,3,53.92597949,10.69217121
Blanes,165.78285033727065,14,41.68891945,2.783080182
Neu-Ulm,165.5136878805516,16,48.38050377875,10.056702225625001
Niederbronn-les-Bains,165.47300051804632,1,48.95625147,7.644078174
Forchheim,165.4040650217033,10,49.71994776,11.06361931
Christchurch,165.4020863176263,16,50.77325099,-1.75873222
Saint-Androny,165.37926758284507,8,45.16141289,-0.6347037067
Cwmbran,165.36838656312494,13,51.64705732,-3.0260835600000004
Bamberg,165.2934240473095,18,49.898424635,10.907936205
Walton-le-Dale,165.2917442412417,15,53.742725279999995,-2.624839046
Torredonjimeno,165.2755608425249,7,37.79813355,-4.03685845
Wingene,165.2176486152966,6,51.05948991,3.2600324079999994
Bournemouth,165.06028712351073,13,50.7823624023077,-1.8940362123076921
Pinto,164.95006152226014,11,40.24690462,-3.685632436
Oldenburg,164.91895964050576,6,53.15358500666667,8.210530521499999
Bideford,164.90166312278618,11,50.98708632,-4.333019993
Porto Cristo,164.87865177930038,6,39.53778591,3.29253368
Binisalem,164.86288846648722,5,39.68451309,2.856824518
Pontllanfraith,164.67525190020777,4,51.68273132,-3.190946734
Montauban,164.57402006717118,6,44.02224179,1.364283525
Harpenden,164.48180332796275,4,51.8171703,-0.3581033881
Kornwestheim,164.3857577705214,15,48.86629098,9.186536226
La Hoguette,164.27802174266526,6,48.88847483999999,-0.2142134712
Mansfield Woodhouse,164.14830202474786,15,53.17119886,-1.2049188449999997
Échirolles,163.8658996523194,7,45.14686419000001,5.715377579
Holmfirth,163.58979251650737,7,53.56704468,-1.817564786
Mansfield,163.58555895192015,5,53.12886960000001,-1.179702484
Bedford,163.3246115331978,22,52.12911433681818,-0.45861831535
Saint-Martin-de-Fontenay,162.98424135444554,4,49.1014562,-0.3739462871
Le Plessis-Trévise,162.96364588522067,6,48.80579982,2.576430053
Launton,162.90140586957068,9,51.89832289,-1.149674228
Haguenau,162.78109698282486,9,48.832289,7.820469100999999
Palafrugell,162.77924688717732,8,41.91634664,3.164277149
Hucknall,162.56948986809985,15,53.05912633,-1.199891531
Attendorn,162.23964186921896,6,51.12090833,7.897841535
Soumagne,162.13243619388166,9,50.62234110666667,5.733327844222222
Overath,162.1039736837071,14,50.9449528,7.294956477
Garges-lès-Gonesse,161.89767845199933,11,48.97045893,2.40456505
Harelbeke,161.61546001522743,4,50.84346325,3.317618455
Barking,161.536986245817,11,51.5308712,0.09962388434
Billinghay,161.40541901198955,13,53.1170753,-0.3284378636
Le Mans,161.3698103877319,17,47.98504261,0.2072297052
Arroyomolinos,161.27096599242623,9,40.28011473,-3.9158098329999995
Kortrijk,161.00754864860718,16,50.8154688,3.276507538
Marquise,160.70400032401085,2,50.83022171,1.710386602
Viersen,160.40920593543666,8,51.26832508125,6.336985242625
Ahrensburg,159.933056229145,13,53.66863186,10.23648073
Cherbourg-en-Cotentin,159.4790621659754,9,49.63039596,-1.5667715063333334
Ziltendorf,159.09797644813156,12,52.36050523,14.91839856
West Bergholt,158.9965285450826,9,51.93217418,0.7919371856
Burton upon Trent,158.83503344900976,9,52.798811470000004,-1.6976356157777779
Haltern am See,158.82659776103753,8,51.75258399,7.185895456
Hennigsdorf,158.60293402680753,9,52.63169433,13.20220112
Pantin,158.50184950177518,14,48.8985152,2.409168842
Droitwich Spa,157.93619140598742,10,52.2732291,-2.153352705
Almazora,157.87598504044269,13,39.95136164,-0.06815009378
Dinslaken,157.516986947267,11,51.560845096363636,6.7395747794545455
Tournai,157.49094325389518,23,50.603109903913044,3.370574829347826
Rochester,157.40300970534503,10,51.372745291,0.46533557203000003
Zafra,157.24561423873573,7,38.436917400000006,-6.45058143
Sainte-Foy-de-Peyrolières,157.23371869295218,14,43.51237597,1.1590091
Parque de Las Castillas,156.90842637454747,7,40.68548859,-3.346733212
Warhem,156.83638173275324,6,50.95900401,2.429845028
Cambronne-lès-Clermont,156.78826288021145,12,49.32070887,2.422428069
Neumünster,156.5800936492193,11,54.04662368000001,9.993442616
Lebrija,156.5251601409092,13,36.93946975,-6.061443743
Torcy,156.33880428003255,6,48.85385681,2.650711353
Ayamonte,156.24968073233225,9,37.28347815,-7.389440419
Eitorf,156.02528008765552,3,50.76469914,7.452250129
Lorient,155.91746582664834,14,47.74878939,-3.376335242
Morbecque,155.85558992131038,13,50.71606002,2.534726287
Bétera,155.51848197384714,3,39.6155614,-0.4677476961
Troisdorf,155.4159696949093,9,50.82346362,7.161192053666667
Risca,155.01558097049997,7,51.64734817,-3.1236052609999994
Rentería,154.974783290149,5,43.27775605,-1.885711357
Santurce,154.89380493975605,6,43.33078171,-3.047161564
Bressuire,154.87186995893856,6,46.85317099,-0.46597043069999994
Bassenge,154.75092651303214,11,50.76564222,5.610135125
Les Abrets en Dauphiné,154.52144678675822,6,45.54784274,5.574323447
San Andrés del Rabanedo,154.42545283720523,10,42.599072957000004,-5.6155066503999995
Los Hueros,154.36260267413184,3,40.44229032,-3.3255556789999994
Wokingham,154.2517978634581,14,51.41585242,-0.8698304131
Southall,154.04320185433392,11,51.50520130636364,-0.3709881196636363
La Thuile,154.03657707706037,7,45.53644489,5.99895832
Allonnes,154.00545514822943,3,47.96471631,0.1250054192
Comblain-au-Pont,153.90226818803205,8,50.47569073,5.581761773
Burg (bei Magdeburg),153.84502035548752,8,52.28407899,11.85634789
Stanmore,153.63869826211146,6,51.617807199999994,-0.3134363628
Totton,153.5978967409206,8,50.9042543,-1.510645608
Toddington,153.5708506322423,15,51.93461687,-0.5194424808
Schönefeld,153.43580008240176,11,52.36794067,13.50483292
Fenouillet,153.36546005119877,10,43.70840524,1.396843367
Herbignac,153.29998082245592,10,47.43255036,-2.331351128
Auneau-Bleury-Saint-Symphorien,153.22252400843956,4,48.42882957,1.774201732
Warboys,153.08464754892395,12,52.37115244,-0.2290430135
Dendermonde,153.07729611415942,19,51.02759508,4.09051786
Cagnes-sur-Mer,152.5897105634388,22,43.67201009,7.152488564
Toul,152.3281272734622,11,48.71419514000001,5.873414889
Gera,152.23188440052144,9,50.87520721,12.03915695
Villarejo de Salvanés,152.11306315832266,4,40.12988727,-3.268243995
Soria,151.6868393938221,10,41.83128329,-2.774615318
Palencia,151.57744249007433,9,41.99885302,-4.5099338
Gütersloh,151.50818767499302,12,51.900384886666664,8.393622877833332
Banbridge,151.26437148098807,13,54.31989,-6.210451708
Ibbenbüren,151.08581082717745,6,52.2777519,7.708071472
Ávila,151.066929266753,11,40.63784885818182,-4.667636890181819
Pommerit-le-Vicomte,150.98399892222872,8,48.58476458,-3.147655514
Orrell,150.93531588842393,10,53.52477395,-2.696855224
Saint-Galmier,150.83004910614244,9,45.58355987,4.325600187
Savigny-sur-Orge,150.69259727622176,12,48.68416534,2.349049322
Jurançon,150.60339443386334,7,43.26776576000001,-0.3988538589
Alcalá la Real,150.4178446421343,9,37.45109255,-3.913722478
Romilly-sur-Seine,150.38061696312147,6,48.479403749999996,3.6915159659999994
Southend-on-Sea,150.19382541964313,10,51.55485107100001,0.6675441038300001
Caerphilly,150.099913680611,8,51.58978058,-3.212304396
Borna,150.06936903028853,11,51.1236235,12.49119075
Massy,149.93253087807489,9,48.72751664,2.275226448
Cesson-Sévigné,149.85286340801156,14,48.1203982,-1.597199444
Oosterzele,149.69160314220173,5,50.93880379,3.7971691739999995
Oberursel (Taunus),149.60177512780558,14,50.209280060000005,8.55465025
Wichelen,149.44276402636686,7,50.99875293,3.953450891
Hambledon,149.4012597066852,14,50.90676188,-1.064713892
Wedel,149.3694658958279,9,53.58872934,9.70299123
Taden,149.31075639775003,14,48.44272355,-2.053959568
Rutherglen,149.22131912155479,4,55.81746668,-4.203117499
Sundern (Sauerland),148.93288285868292,9,51.31054269,8.005777648
Sondershausen,148.77600025385618,2,51.35574978,10.81982216
Salzgitter,148.75584120086762,9,52.15911964666667,10.406719636666667
Coulsdon,148.7094903673246,8,51.3017428,-0.1496059963
Wavre,148.5123832774066,14,50.71611435,4.5891198645
Verrières-le-Buisson,148.41787784993542,8,48.75046169,2.25210401
Osterholz-Scharmbeck,148.34181315273477,15,53.25563951,8.792402334
Puerto de Sagunto,148.30943852106466,5,39.65811702,-0.2309416578
Paiporta,148.09543009155325,9,39.4258783,-0.4124031112
Neumarkt in der Oberpfalz,148.0437509426665,13,49.28249587,11.47292602
Herford,148.01001333793187,11,52.12505352545455,8.67406335009091
Schoten,147.98179201987188,5,51.26412918999999,4.508247417
Rossett,147.81629230040386,3,53.102067440000006,-2.977941823
Puebla de Vallbona,147.79811600289773,5,39.60220803,-0.5424339983
Wittmund,147.5928823281889,8,53.58514973,7.758557491
Inverurie,147.5271537135388,10,57.29209665,-2.443304726
Reichenbach im Vogtland,147.48905263037804,7,50.62116123,12.3323953
Les Pennes-Mirabeau,147.29855325667444,7,43.402946699999994,5.315841029
Brierley Hill,147.00798634434548,8,52.4828449,-2.122216516
Issy-les-Moulineaux,146.95037901417308,15,48.82312921,2.264821256
Saint-Malo,146.9187957770802,17,48.63801422,-1.9825103779999997
Hofheim am Taunus,146.58909581158588,3,50.09460525,8.409054553
Zulte,146.24127561405805,11,50.93736953999999,3.472654564
Pfungstadt,146.0058297706053,7,49.79994333,8.588401204
Santa Margarita,145.82226370652347,7,36.20609565,-5.338912673
Isernhagen,145.73144887134384,6,52.45485141999999,9.852144515
Soest,145.72677306345605,7,51.56582056999999,8.086278771
Louth,145.4969875010556,8,53.37168191,0.024090972
Unterschleißheim,145.3868279870213,10,48.27632658,11.56013066
Ollioules,145.3656488338874,9,43.13905466,5.854120172
Val d'Arry,145.0264300612437,7,49.10340822,-0.509309627
Vitry-sur-Seine,144.92802731238507,14,48.788145,2.394605909
Algemesí,144.8583267695489,8,39.21366546,-0.4292462478
Wilmslow,144.81760120505712,16,53.32581188,-2.239439169
Torrelavega,144.60814540332015,14,43.33700753,-4.040062941
Alfaro,144.52267894330163,6,42.16355029,-1.831098294
Bastogne,144.32279183878404,9,50.01570622,5.761546733
La Feuillie,144.23271436381805,4,49.48398401,1.639352815
Straubing,144.13025498279433,13,48.88077995,12.57373851
Guyancourt,143.75487957223083,5,48.77303627,2.075776876
Biberach an der Riß,143.60465955690034,8,48.0911432,9.78869814
Emsdetten,143.45467450055727,17,52.17343441,7.523168519
Pertuis,143.30080527516265,9,43.70961551,5.61158612
Estaimpuis,143.29862421751963,9,50.68764587,3.288427814
Idstein,143.23732419064066,12,50.232882,8.250125667
Totana,143.08103662593732,13,37.75422946,-1.5156319039999997
Santa Coloma de Gramanet,142.8203083029627,12,41.456926347499994,2.2066580645
Wembley,142.81682020120283,13,51.55490212307692,-0.29841923365384615
Lauf an der Pegnitz,142.7492195672138,13,49.52606276000001,11.27175725
Aranjuez,142.7287553314227,11,40.04999902,-3.5872622270000005
Kettering,142.7264001023192,4,52.40891598,-0.7154186168
Brasschaat,142.3222235955735,11,51.30966796,4.500507733
Ifs,142.32190335973235,12,49.144504500000004,-0.3522900083
Wörth am Rhein,142.08635914220932,12,49.03465062,8.186512467
Newark-on-Trent,141.95617820270655,10,53.07018923,-0.7804927374
Sainte-Agnés,141.67336486049481,9,45.23077677,5.947766046
Herten,141.419297712405,3,51.6128991,7.109970541
Saint-Nazaire,141.379036895736,12,47.28006666000001,-2.250331602
Champigny-sur-Marne,141.1004764123532,12,48.81733107,2.516953267
Millery,141.01983854475202,15,45.64492631,4.784348954
Pernes-les-Fontaines,140.95985009162453,8,43.99012207,5.08843851
Villanueva de Córdoba,140.8985130716089,8,38.27608776,-4.629748683
Dehesa de Campoamor,140.7990862925923,9,37.92930781,-0.762501389
Pinneberg,140.57510986387638,16,53.6474618,9.792353111
Winterton,140.4949687232514,10,53.64105546,-0.6198485082
Movera,140.4330559685509,8,41.63967272,-0.815234249
King's Lynn,140.3837319855437,8,52.78026792,0.4149069199
Montepinar,140.28739875816404,2,38.12717175,-0.9862777708
Grane,140.2344118627472,9,44.73901211,5.068984059
Ploufragan,140.18934429329525,4,48.49601411,-2.821756507
Ostend,139.92319238556976,10,51.2098806,2.925805781
Couvin,139.59995651770015,2,50.0379075,4.48093379
Anse,139.3941889673291,14,45.92804108,4.702516303
Le Gua,139.24010153218393,11,45.70549828,-0.8996101256
Diksmuide,139.1850793697766,8,51.04741639,2.854162232
Le Chesnay-Rocquencourt,138.97757995454776,8,48.82917813,2.119866536
Saint Mellons,138.79656194716722,11,51.53057016,-3.0994956420000004
Shirley,138.78474510176676,7,52.39493559,-1.824626485
La Almunia de Doña Godina,138.74363659483956,4,41.47196146,-1.360040651
Medina del Campo,138.4849509817498,5,41.3158895,-4.92283575
Frontignan,137.79156597906191,6,43.471692569999995,3.777061998
Játiva,137.75023467014813,18,38.99465805,-0.5284541903
Braine-l'Alleud,137.59332842167072,12,50.6878938675,4.359365872833333
Baugé en Anjou,137.43784634072355,8,47.56419883,-0.1016933951
Tabernes de la Valldigna,137.3377448046686,7,39.08030537,-0.2547168346
Ortuella,137.3218648109069,8,43.30301193,-3.057270652
Évry-Courcouronnes,136.9707081067553,10,48.628793407,2.4369632463
Haverhill,136.94715509640685,14,52.09076866,0.4486660988
Overton,136.62771303263958,9,53.01252605,-2.927397385
Salses-le-Château,136.3901453192936,6,42.82394291,2.8525344129999994
Guardias Viejas,136.33335586367872,10,36.7439045,-2.801169821
Jersbek,136.27699641970173,2,53.72581367,10.25370791
Calafell,136.24524694087265,5,41.20765612,1.580606711
La Bazoge,136.2223627673366,4,48.06881878,0.1368259902
Wallenhorst,136.16047128051574,13,52.34461211,8.024000556
Fécamp,135.97312949701487,8,49.73673259,0.3972531114
Hornchurch,135.91702925204265,14,51.56472782357143,0.21925955527142857
Gap,135.67065654313373,6,44.562594319999995,6.068802520999999
Achim,135.4665969464599,6,53.0211975,9.038604247
Remseck am Neckar,135.33516180845186,14,48.87711753,9.265983296
Detmold,134.93700997508753,11,51.94846258727273,8.879494867545453
Boulazac Isle Manoire,134.85984228999132,6,45.17273669,0.7652288874999998
Almansa,134.62150748902957,15,38.84116422,-1.09038558
Wildeshausen,134.62096982880814,7,52.879842180000004,8.403682866
Aldershot,134.4959246571193,4,51.25619446,-0.767730723
Ludwigsburg,134.43356189735752,12,48.91142392,9.248711826
Lancaster,134.26901679237432,8,54.04597272,-2.79410566
Burlada,134.0975023363996,9,42.82436308,-1.616470072
Meriden,134.0644254033812,7,52.45107254,-1.566904554
Urmston,133.99724847704158,4,53.45144336,-2.366407089
Emmerich am Rhein,133.98721280797403,11,51.850080209999994,6.248696508
Varel,133.9543773161862,1,53.38787696,8.116927504
Sutton,133.8501486685371,20,51.35754068,-0.19579568014999998
Endasa,133.80770516432835,7,43.57658807,-5.89240514
Neuss,133.7767487683238,13,51.203602111538466,6.686299912153846
Abrest,133.70923953142145,10,46.10756068,3.4539444079999995
Rousson,133.63139845650886,12,44.162171910000005,4.154057741
Markkleeberg,133.5792610524748,10,51.26667690000001,12.38669258
Birkenhead,133.47381098516075,10,53.370113185,-3.0736026958
Argentona,133.43008416503312,11,41.56199761,2.39171252
Ciudad Rodrigo,133.0490891686468,10,40.6348061,-6.496841691
Uxbridge,132.92962662911583,8,51.53300705,-0.470265053
Croix,132.85013275432334,3,50.67381149,3.1552629310000007
Épieds-en-Beauce,132.7440448177301,5,47.89949863,1.650891038
Juvisy-sur-Orge,132.6554898112048,5,48.69185,2.37371129
Carmaux,132.57939685215788,8,44.0428473,2.149024048
Vilafranca del Penedès,132.43094918810647,11,41.34751239,1.700931543
Friedberg,132.42910267506448,11,48.36230068,11.00329143
Laguna de Duero,132.14906890629348,6,41.57223426,-4.718847256
La Tour-d'Aigues,131.9775682473428,4,43.76735056,5.564599077
Siegburg,131.6816694564381,8,50.80529506,7.237701031
El Puerto de Santa María,131.5766901955135,14,36.6314427,-6.233522578
Forst (Lausitz),131.5445471880154,12,51.72628919000001,14.60155145
Gagny,131.37300092127825,8,48.88174038,2.545639585
Villejuif,131.26518239235457,8,48.79238807,2.359769882
San Sebastián de los Reyes,131.22327573487567,9,40.549406534444444,-3.599975841666667
Asson,130.94275723716595,7,43.14188397,-0.242843616
Triel-sur-Seine,130.86885718474988,9,48.97829744,2.008403955
Thurins,130.31363931584946,9,45.68393385,4.641098004
Corby,130.1428078794383,10,52.47403756999999,-0.6911910818
Bigues i Riells,130.13913026641205,2,41.67807779,2.206559674
Habay,130.0981595797674,9,49.73468706,5.560884704
Orée-d'Anjou,129.88630476155976,5,47.29053392,-1.21965731
Alzey,129.64755499108298,10,49.75147319,8.103202571
Woluwe-Saint-Pierre,129.5840597101802,10,50.83113751,4.443066493
Livingston,129.40429835459102,9,55.88952169,-3.528106615
Avignon,129.25601682227878,15,43.93835341466667,4.832652888866666
Saint-Raphaël,129.22869448792932,9,43.45778983,6.84751014
Avilés,128.9324133892409,15,43.55143383,-5.9165625256
Saint-Pierre-de-Chandieu,128.7224744590125,16,45.65163065,4.990649105
Bois-Colombes,128.71470892477942,10,48.91547585,2.268106497
Arcos de la Frontera,128.39268928269428,10,36.74900002,-5.738011426
Elgin,128.3887269568666,7,57.62514581,-3.337468512
Moormerland,128.15936516544895,3,53.3221131,7.43676583
Fréjus,128.04341049256251,12,43.50124915,6.758216387
Rheinbach,128.03417236785174,6,50.61553766,6.950113687000001
Bensheim,128.02670472743804,11,49.692948529999995,8.623326523
Sailly-Lez-Lannoy,127.98809091037732,2,50.65806191,3.224942126
Longridge,127.98771786522569,14,53.88054073,-2.7147461290000003
Denton,127.95545267749496,12,53.45712669,-2.121233689
Dungannon,127.94241112842317,10,54.514492680000004,-6.678408451
Nantwich,127.89340678076462,9,53.05402973,-2.533463299
Chesterfield,127.8837526889377,13,53.24110713153846,-1.435382470153846
Tamworth,127.56200009584427,4,52.61631328,-1.666383545
Dehesilla de Calamón,127.52111117289527,7,38.72501612,-6.938150437
Worcester Park,127.51088082512364,5,51.37783182,-0.24521364490000003
Damme,127.40608122322344,2,51.25222519,3.327499618
Chaville,127.38813529983508,5,48.80744253,2.192161554
Basildon,127.33416462708772,17,51.557683792941184,0.4628566371647059
Sóller,127.32624724193694,10,39.77465367,2.70713879
Londonderry,127.29643690353481,16,54.94292214875,-7.1234450684375
Kirkintilloch,127.170380475158,5,55.95638297000001,-4.16742199
Villarrobledo,127.1238020983543,9,39.19271943,-2.612162025
Blean,127.06713067627739,9,51.30171731,1.066187177
Rochefort,127.06187591347107,13,46.27293612538461,-0.5024912348615385
Sanary-sur-Mer,126.88400783862465,9,43.13881795,5.795735561
Hythe,126.86176545597303,7,50.82910968,-1.377106756
Heusden-Zolder,126.8134879614669,6,51.01983332,5.289168028
Warburg,126.79001734590565,9,51.51342191,9.092450799
Wachtberg,126.71994502546558,7,50.62536524,7.117811313
Ellesmere Port,126.69095497485831,8,53.28053855,-2.951981693
Wegberg,126.62347784671206,6,51.14279861,6.249703328
Einbeck,125.87183543623154,8,51.82260662,9.888712394
Petrer,125.78596322826988,4,38.49216138,-0.7315818191
La Baule-Escoublac,125.7628449416683,9,47.29071813,-2.35368849
Tingley,125.56308668155766,11,53.72439455000001,-1.5178638920000003
Donington,125.3505687795406,9,52.81285459,-0.2003223513
Bad Oeynhausen,125.32096004032783,11,52.24106682000001,8.789381919
Saint-Sulpice-le-Guérétois,125.0996253558663,8,46.16343424,1.861779015
Stendal,125.022268223372,2,52.58495608,11.78310115
Chaumont,124.96708322041472,8,48.10354404,5.133180968
Sant Joan Despí,124.93575394750145,9,41.366115,2.055297559
Saint-Mars-d'Outillé,124.7432690442806,13,47.848747450000005,0.2927455809
Backnang,124.71364291195955,7,48.94532263,9.438745405
Elne,124.68420208341239,12,42.61387924,2.964063267
Torrejón de la Calzada,124.6224994584918,1,40.20311203,-3.798562376
Draguignan,124.51698458680976,14,43.57404107,6.446492496
El Estepar,124.4844974685862,9,38.67861013,-0.5163363064
Mortagne,124.28451974803997,6,48.22277041,6.698240293999999
Fontenay-le-Comte,124.25601617049273,5,46.470515,-0.8041029104999999
Auriol,124.19341814447932,4,43.36068679,5.658548933
Calpe,124.1481482252047,10,38.65270893,0.04437321718
Northeim,123.87017444637073,8,51.71661699,9.995920819
Heinsberg,123.8258894710784,13,51.0540232,6.088685507999999
Lucena,123.82424976264828,7,37.35337131,-4.535131052
Thouars,123.79100025549998,5,46.9726828,-0.1697807624
Bouc-Bel-Air,123.70456809040482,4,43.44734809,5.412562605
Günzburg,123.70119901856431,6,48.46614845,10.28018448
Offenbach am Main,123.53965319396146,14,50.08659518857143,8.768384197285714
Gerpinnes,123.2095776997386,8,50.34742541,4.528013439
Ryton-on-Dunsmore,122.93733776420376,12,52.35726917,-1.532317548
Lippstadt,122.8898522236674,8,51.65919656,8.349802544
Le Kremlin-Bicêtre,122.88894752944022,13,48.80873838000001,2.355872399
Torrelodones,122.88391587535754,10,40.576259,-3.929476444
Saint-Barthélemy-d'Anjou,122.84989135753756,5,47.48093149,-0.466202868
Gauting,122.7581129677776,13,48.06064682,11.355149540000001
Don Benito,122.61825338512361,7,38.8629812,-5.899990601
Tipton,122.52086350716182,10,52.533056910000006,-2.053090915
Forest,122.51748913892698,9,50.81396897,4.324148837
Overijse,122.41912932097125,5,50.77144647,4.532769178
Es Canar,122.34276918821365,4,38.98629088,1.509557162
Margate,122.29972104267657,6,51.37601611,1.383484243
Aiffres,122.07292431272514,7,46.25551894,-0.3657678451
Burgwedel,121.98779737342599,6,52.53595071,9.888271454
Hannut,121.89579171201595,9,50.66610739,5.073156155
Villeveyrac,121.80891785931648,12,43.50632932,3.6352707189999998
Benicarló,121.72846175930042,5,40.44378656,0.4028642174
Olching,121.71953176353969,13,48.20946244,11.347223420000002
Oldbury,121.490101017901,5,52.50348479,-2.029071225
Incourt,121.43755158299507,5,50.69906474,4.781513633
Euskirchen,121.39702300838195,15,50.63487388,6.817903491
Lloret de Mar,121.34056984183064,10,41.72232664,2.834849933
Zoersel,121.26404272386242,7,51.25757149,4.670659969
Woluwe-Saint-Lambert,121.20002127242579,11,50.84782635,4.431757647
Vert-Saint-Denis,121.0840795627958,2,48.56435271,2.600005698
La Gangosa,121.02552287696957,12,36.81192698,-2.662416419
Seneffe,120.87653623105949,5,50.52649616,4.268351302
Stolberg,120.79699972458185,2,50.7387836,6.285257869
Longues-sur-Mer,120.777233457676,8,49.28157562,-0.7155246367
La Puebla de Montalbán,120.59462938975436,3,39.81633221,-4.379348009
Cintruénigo,120.35830090388764,3,42.0659518,-1.794379431
Torquay,120.31752126876319,5,50.47730663,-3.55364833
Bregenz,120.27105276866334,8,47.52226843,9.75635227
Kluisbergen,119.93513250163466,6,50.77966562,3.5301205040000005
Louvres,119.84970748202906,8,49.04860251,2.518611604
Andover,119.80434981988424,11,51.21448828,-1.4843451869999997
Garrapinillos,119.75321737869936,6,41.67804961,-1.083996731
Fontainebleau,119.7499803379531,9,48.40654913,2.681056268
Palmones,119.71868608193323,8,36.2158637,-5.4585269
Bron,119.57161348208226,7,45.73467229,4.911948396999999
Flemalle,119.5338985675883,11,50.59702218,5.441142829
Benon,119.50185111089573,4,46.25236582,-0.8118726088
Neustadt am Rübenberge,119.46017616328255,9,52.55490328,9.464753311
Buchholz in der Nordheide,119.44982017477253,10,53.32016298,9.858505331
Haan,119.42869302510438,4,51.20805766,7.010168921
Uhlstädt-Kirchhasel,119.40206629489626,5,50.75199727,11.34600557
Caldes de Malavella,119.39999955520034,2,41.83625605,2.805730825
Bad Honnef,119.3186304620976,9,50.65333579,7.278441707999999
Bruz,119.26050015352666,7,48.02596709,-1.748406207
Comarruga,119.20007662439885,3,41.18725626,1.519565801
Beckum,118.76764648394565,10,51.76066646,8.046747005
Ibiza,118.59757755405323,10,38.93125802,1.415275692
Bishop Auckland,118.50505293619052,15,54.652988,-1.710472833
Chevilly-Larue,118.4986775996867,5,48.76690039,2.352896829
Saint-Marcel-Bel-Accueil,118.33820470493706,5,45.61693777,5.222870748
Andlau,118.31062066828383,10,48.39605286,7.411955007
Esmery-Hallon,118.27391871481697,12,49.75208325,3.019161139
Cergy,117.94644397804939,11,49.03201403272727,2.0450470356363635
Lichtervelde,117.82426757778444,6,51.02785941,3.1461479880000005
Figeac,117.68895031122257,4,44.61981423,1.999354899
Poissy,117.56357203163155,8,48.92347587,2.027401857
Tiverton,117.46535218788696,11,50.93965173000001,-3.526153927
Glières-Val-de-Borne,117.40559543314244,16,46.03043394,6.412488564
Cugnaux,117.35011071589359,6,43.53411226,1.334594494
Castanet-Tolosan,117.3318094435493,5,43.50881796,1.474398969
Blaengarw,117.29530775983422,9,51.54711598,-3.591975244
Loos,116.54923455920115,8,50.60881527,3.020055618
Sennecey-le-Grand,116.35926238770931,7,46.64651142,4.849654269
Böblingen,116.35073685468065,10,48.680346754,8.999289098999999
Tafalla,116.21697165107041,2,42.51559378,-1.710037984
Geseke,116.19436020510838,7,51.63470987,8.492241568
O Milladoiro,116.17881642836583,3,42.84354536,-8.605632496
Ebbw Vale,115.7370566124753,8,51.79461121,-3.195302092
Waiblingen,115.70671042910811,9,48.82815084,9.307438189
Cerdanyola del Vallès,115.70379179324698,9,41.47589713,2.129683787
Leymen,115.52183018631278,10,47.54436591,7.472604792
Sélestat,115.47888884649198,5,48.26486661,7.489722664
Caravaca de la Cruz,115.16926158466774,8,38.10074304,-1.876530176
Cournon-d'Auvergne,115.07395613440656,4,45.73153473,3.216716146
Temse,114.89213144676933,9,51.13305466,4.205557655
La Escarihuela,114.86078557308501,5,37.5804762,-1.768343372
Mios,114.50974242073882,7,44.63818848,-0.9049283786
Santa Ponsa,114.46405550695683,4,39.53033404,2.48328495
Ehingen (Donau),114.43616491339476,3,48.28090162,9.669923856
Lüneburg,114.43134037323654,7,53.229151117142855,10.416669432857143
Wunstorf,114.42441089733796,6,52.43680642,9.392804883
Châteaugiron,114.29940082119815,3,48.049358430000005,-1.5196278439999997
Braintree,114.22412699581815,11,51.939231019999994,0.4914490293
Wattignies,113.62430491649296,10,50.58262904,3.03589225
Saint-Germain-en-Coglès,113.41645007201484,8,48.35982961,-1.189219401
Aubange,113.40416727150932,9,49.57518787,5.790430833222222
San Martín de Valdeiglesias,113.404081390692,2,40.36192503,-4.36585135
Rubí,113.28910415719555,16,41.50150007,2.015051851
Clairmarais,113.0828513460723,6,50.75816417000001,2.229542384
L'Isle-sur-la-Sorgue,112.64008702669561,4,43.91593804,5.086415838
Jüchen,112.40722856129398,4,51.10258853,6.506345839
Standish,112.37287898977489,5,53.586944970000005,-2.689945948
Omagh,112.30340557472248,5,54.5714932,-7.413382485
Kürten,112.17033309965974,7,51.04006544,7.255758516999999
Halesowen,112.07594178468487,9,52.43737914444445,-2.051688796
Paterna,112.0322695393956,6,39.52813872,-0.4509882608
Poole,111.90201035326427,5,50.7398895,-1.9260104429999998
Oberhaching,111.88545753422801,7,48.018356419999996,11.569989000000001
Esneux,111.85124415085366,6,50.53762686000001,5.568738153999999
Prestwich,111.79044637423374,12,53.53316745,-2.269258848
Alcira,111.78793999463713,9,39.14972891,-0.4220298581
Westerlo,111.73790302386169,7,51.10639103,4.881847751
Issoire,111.72441571265853,7,45.54680068,3.251859604
Sint-Pieters-Leeuw,111.64669308897615,7,50.78798784714286,4.239620538428572
Burntwood,111.63949903886765,6,52.67691238,-1.913627588
Lossatal,111.63675381306159,10,51.38811771,12.80256589
Lage,111.5865372410718,6,51.98225206,8.777661785
Espelkamp,111.53668810858116,5,52.37143559,8.624594751
Riom,111.47877182111577,6,45.909410259999994,3.1247155469999996
Bobes,111.42303936291363,5,43.40474836,-5.779219829
Vitrolles,111.17292736859727,6,43.44976273,5.263410548
Ingré,110.74006042769045,4,47.93860926,1.798956228
Rottenburg am Neckar,110.64883621427745,7,48.47334114,8.906982876
Chorley,110.61791471226316,9,53.65938118333333,-2.6204679135555558
Swadlincote,110.42956054791946,7,52.77410404,-1.541249399
Ermont,110.38394350697732,9,48.9879541,2.256665789
Patchway,110.37798034882218,5,51.519185879999995,-2.566623069
Wangen im Allgäu,110.28286218557763,9,47.69244617,9.806143155
Galdácano,110.24070654265235,7,43.23053835,-2.834638424
Steinfurt,110.19690012131315,8,52.14464815,7.369459194
Fillière,110.07228423722822,8,45.96007136,6.162117101
Punta Umbría,110.06851534016828,8,37.21629481,-7.016536555
Hattingen,109.80531642259868,9,51.373782662222226,7.1856522709999995
Gotha,109.70154112842292,5,50.94031034,10.70480667
Domérat,109.65400258100809,14,46.331982,2.55482228
Montmagny,109.52785824371166,8,48.97011122,2.345426157
Joux,109.43547328827063,8,45.91195805,4.413040283
Huttenheim,109.32126745930253,4,48.35289802,7.594627954
Ronnenberg,109.31517828915223,5,52.30916302000001,9.655742239
Oostkamp,109.1376370334933,7,51.11930676000001,3.2302884720000002
Weilheim in Oberbayern,108.8383445883088,5,47.84422829,11.145475
Lezoux,108.69206747413706,12,45.81818332,3.399971704
Motherwell,108.59824441036582,12,55.80923666,-3.942749844
Wesel,108.57448934003088,6,51.668402320000006,6.5994618495
Gibraleón,108.4798035171408,7,37.39600065999999,-6.994450541
Brimington,108.39840504909247,10,53.27241898,-1.328066402
Halle (Saale),108.26310202463546,14,51.45208473428572,11.994349227142859
Châtenay-Malabry,108.26222009061239,9,48.76823257,2.263337108
Maaseik,108.233679980377,9,51.08826723,5.714595299
Caen,108.21787818031211,9,49.18487315,-0.3698966101
Zirndorf,108.08236316929282,9,49.43515186,10.92541441
Corringham,108.06466036037781,8,51.52076239,0.4493709379
San Isidro de Níjar,107.96184764520113,5,36.84699377,-2.153889823
Le Bouscat,107.9164797420712,10,44.8659607,-0.6032269776
Cazouls-lès-Béziers,107.74748297963816,6,43.38331859000001,3.097134215
Melle,107.69447238464588,5,50.9968791,3.796356194
Saint-Berain-sous-Sanvignes,107.67137457800192,5,46.67344195,4.397726628
Chester,107.62557581189574,10,53.24334252,-2.849282102
Alloa,107.60843961150339,12,56.10721714000001,-3.7344102000000006
Saint-Fargeau-Ponthierry,107.57099020044924,12,48.52911032,2.540113264
Gonesse,107.56632276205596,10,48.98550893,2.45549956
Bad Neuenahr-Ahrweiler,107.52007887056986,6,50.529620310000006,7.1249597840000005
Tourcoing,107.49070525303813,12,50.72579012,3.159665063
Bellefont-La Rauze,107.39780743044022,4,44.45809443,1.475796576
Great Yarmouth,107.35869666187678,9,52.59742375888889,1.6851602475555554
Torres de la Alameda,107.33363974585103,4,40.3898815,-3.343582117
Dos Hermanas,107.25210830668215,9,37.28199804888889,-5.9534191172222215
Wezembeek-Oppem,107.06514939537401,8,50.84341969,4.492246308
Millau,106.80002322413141,9,44.08990168,3.106309836
Mühlacker,106.60073082686657,8,48.94359063,8.857424846
Montbert,106.58972896673323,6,47.06065983,-1.4558418279999998
Lokeren,106.49928226645167,12,51.11335945,3.961387044
Plérin,106.426323666776,7,48.54393873,-2.7696574219999994
Saint-Leu-la-Forêt,106.41736744903854,9,49.02002623,2.247069342
Blois,106.35633591402592,7,47.61260073,1.320868897
La Madeleine,106.18164978019374,4,50.65432394,3.069974794
Malle,106.14198449981124,9,51.29355543,4.713225688
Clamart,106.00987566269276,14,48.79663478,2.254491279
Martos,105.96382892732841,14,37.70810878000001,-3.999154382
Cuart de Poblet,105.9253807745064,7,39.4722775,-0.4957911638
La Zubia,105.74874552527734,11,37.11023452,-3.571659518
Gandía,105.74444342610818,4,38.97734823,-0.1807595288
Villiers-en-Bière,105.67873801822458,7,48.50441139000001,2.614367803
Saint-Lon-les-Mines,105.39919804565103,8,43.57352477,-1.110460674
Sète,105.28068720966846,7,43.39053565,3.619609226
Enger,105.1670776628063,5,52.138661739999996,8.553795237
Sendets,105.13380305823458,9,43.2938346,-0.2945626829
Bad Rappenau,105.12846596743421,4,49.23918626,9.064500167
Charleville-Mézières,104.80835337806604,14,49.75902767,4.713050908999999
Santiago de Compostela,104.73134677127076,12,42.890920746666666,-8.524178058
Exmouth,104.6745530696436,7,50.6368235,-3.392952219
Kaarst,104.62546991335651,9,51.21943858,6.611071841
El Palmar,104.3216504720807,3,37.92302373,-1.153915367
Apolda,104.02917146398464,6,51.03637902,11.5033257
Glengormley,103.94797972875774,9,54.68405429,-5.963605589
Haywards Heath,103.74675923249015,4,51.00790481,-0.08803770035
Carlton,103.40122081099226,5,52.97920287000001,-1.077679097
La Navata,103.26232854349244,6,40.60375804,-3.979539785
Maisons-Laffitte,103.20305162803024,6,48.94343927,2.141803103
Wilhelmshaven,103.15778474765068,9,53.59292439,8.071158739
Bonneuil-sur-Marne,103.13091382594045,4,48.77331602,2.487854609
Wednesbury,103.04638832012796,13,52.56046972,-2.019075828
Alcoy,102.9344269217562,6,38.69211837,-0.4740825119
Coria,102.89304996099025,3,39.99132125,-6.535705638
Stadtlohn,102.72510428924177,6,52.00212567,6.935139846000001
Tielt,102.65858354423784,3,51.006509920000006,3.363679519
Royal Leamington Spa,102.49061267931782,8,52.2938463275,-1.51361722475
Lindlar,102.392765569912,8,51.02462383,7.362594669
Les Hauts-de-Chée,102.35085389083885,10,48.77692439,5.170317453
Nettetal,102.34164403331191,7,51.31633273,6.250273672
Bremerhaven,102.29653384812488,8,53.52230099,8.585834700374999
Ahaus,102.24896620581077,5,52.09775781999999,6.963041251
Campello,102.21439456891093,7,38.46230752,-0.3727130386
Schiltigheim,102.15001054872508,12,48.61197282,7.746419336
Moussy-le-Neuf,102.08030860647794,11,49.03767452,2.680159038
Sketty,102.01854459296577,3,51.612812170000005,-4.040396942
Moorslede,101.89296979882555,8,50.88088217,3.079057129
Puente Genil,101.86087656546388,7,37.40679767,-4.759746865000001
Doué-en-Anjou,101.84250651490851,2,47.21389235,-0.2927174749
Wesseling,101.81371463672319,10,50.81710695,6.97734664
Farnworth,101.43675824523429,5,53.54588225,-2.401034588
Amberg,101.37580848910149,9,49.45075324,11.84540073
Aspe,101.33142367275418,4,38.32953044,-0.7853103087
Marmande,101.24558964986153,5,44.49638878,0.1743199338
Beeston,101.01409484619266,5,52.930148710000005,-1.244851196
Moraleja de Enmedio,100.98388089383238,3,40.25788261,-3.87970039
Salzwedel,100.77775995175276,3,52.84111142999999,11.14129996
Still,100.7475603379876,6,48.52981192000001,7.373927047
Warwick,100.71817642809874,12,52.275165390000005,-1.575594285
Churchdown,100.64837017233701,8,51.85743493,-2.16211413
Destelbergen,100.52150577589411,16,51.04411972,3.80930707
La Unión,100.3835782685787,8,37.6089409,-0.8744562675
Werder (Havel),100.3495360358128,7,52.38274386,12.88254478
Surzur,100.30863985544913,4,47.59593322,-2.643874119
Newbury,100.23805044650071,8,51.40944976,-1.323391668
Saint-Gatien-des-Bois,100.10106434598983,8,49.28190181,0.2286618946
Hoyerswerda,100.09992149469558,9,51.42429874,14.21241658
Champs-sur-Marne,100.09695831109636,7,48.84816623,2.596548676
Holzminden,100.0954442379099,4,51.78935064,9.49907055
Strausberg,99.95655039695467,4,52.56587212,13.89916322
Vendin-le-Vieil,99.91278680027524,11,50.47020469000001,2.870451865
Buxton,99.56313655036934,15,53.2254053,-1.856172765
San Lorenzo de El Escorial,99.54859372115813,4,40.61211577,-4.126265998
Mörfelden-Walldorf,99.23585667232567,8,49.9845116,8.569911879
Konstanz,99.16317868847585,11,47.685140069999996,9.145702509
Alayor,99.14465891553758,6,39.92119757,4.135314573
Erdre-en-Anjou,99.11647303779749,4,47.62706497,-0.7383208628
Torrijos,99.07820054778662,2,39.9837498,-4.284470857
Saint-Philbert-de-Grand-Lieu,99.04547930717084,12,47.04071629,-1.641354924
Beckenham,98.94825577589725,13,51.40223416,-0.02587720284
Lanaken,98.85859617522956,6,50.88892561,5.638066855999999
Mérignac,98.84871900765646,19,44.83233402,-0.6818096132
Meschede,98.64278941643079,7,51.33810037,8.247669563
Langenhagen,98.63519069591754,3,52.47014214,9.696016793
Henstedt-Ulzburg,98.57095674353498,11,53.78273559000001,10.02804276
Maintal,98.50476153825497,7,50.153518870000006,8.835389755
Tremelo,98.48740182512452,3,50.997940273333334,4.722306389666667
Villarreal,98.47980749140841,14,39.93313198,-0.1287584866
Frasnes-lez-Anvaing,98.47733158022281,5,50.696034299999994,3.5557679676
Caro,98.41470157239206,3,47.81486587999999,-2.332645871
Neuruppin,98.31000541538924,3,52.91312423,12.79951646
Hochheim am Main,98.30726277782644,9,50.02383794,8.36864992
Brenes,98.2948786797358,8,37.55361107,-5.877163773
Laatzen,98.22801662928947,14,52.2892089,9.83975395
Narbonne,98.21270387712296,10,43.16142949,3.00824287
Calw,98.2109657360048,7,48.7096776,8.735883854
Sèvres,98.07158445279366,5,48.82001732,2.207535671
Oer-Erkenschwick,98.05328705886515,14,51.6609919,7.23944178
Raiguero Poniente,98.04062061434269,7,38.08004967,-0.9873880429
Herent,98.0078452051138,11,50.912536100000004,4.645681033
Gladbeck,97.94962499763697,7,51.56149091428572,6.991218487428571
Villamartin,97.91112377139306,9,36.87282438,-5.61648337
Jebsheim,97.86747629883018,5,48.10115073,7.4924695880000005
Soisy-sous-Montmorency,97.79944311417586,3,48.98835535999999,2.300859112
Worksop,97.70705395917639,7,53.2811466,-1.142781834
Ostfildern,97.63132836543126,9,48.7175873,9.261166252
Soltau,97.62421325217731,4,52.99589237,9.856468238
San Juan de Alicante,97.38959008306676,4,38.40460688,-0.428581745
Leyland,97.38895344885741,9,53.6946664,-2.689110962
Le Bosc,97.32197182153409,13,42.951406430000006,1.580793276
Tollerton,97.29600301248212,8,52.89817034,-1.040746278
Eislingen/Fils,97.16722926568596,2,48.70260794,9.715904787
Choisy-le-Roi,97.15586745835412,9,48.76425726,2.417108925
Hamilton,97.12729984629236,12,55.7536467,-4.045166257
Vandœuvre-lès-Nancy,96.98573376216676,5,48.65755705,6.164678007
Las Lagunas de Mijas,96.91117248371313,5,36.56535341,-4.677522305
El Viso del Alcor,96.77976098625899,3,37.38617341,-5.708971084000001
Malay-le-Grand,96.7585119913282,15,48.19706863,3.289053618
Florimont,96.71872544623425,6,47.52619841,7.026372279
Val d'Oingt,96.57945752228477,5,45.94271163,4.556343363
Limoux,95.75130561506597,9,43.04859491,2.179924269
Grenade,95.66668547262597,9,43.75588271,1.23437356
Hörstel,95.60942004952433,7,52.28948311,7.58503525
Los Martínez del Puerto,95.58662321209083,4,37.82614897,-1.07723881
Leuze-en-Hainaut,95.43228061871423,9,50.602199524444444,3.6640635786666667
Ceutí,95.37306684440316,12,38.08302909,-1.281925448
West Drayton,95.25197832923571,8,51.49746386,-0.4711802038
Saint-Loubès,95.21582719306687,7,44.91209728,-0.4017426341
Saintes,95.1895675858381,4,45.75736555,-0.6040014379
Eberswalde,95.17682225070617,10,52.84140718,13.819612080000002
Vitré,95.15984104000097,9,48.13808143,-1.1897123
Halberstadt,95.1202022131674,4,51.88800849,11.04377219
Porta Westfalica,94.93259623705012,5,52.22369932,8.952000297
Knokke-Heist,94.76151203904759,6,51.328466035,3.2908472215
Torre-Pacheco,94.71159328748266,4,37.76047062,-0.9599845425
Wetter (Ruhr),94.52409267416837,7,51.37771593,7.353691492
Pierrelatte,94.23313327981295,9,44.37173322,4.70988496
West Wellow,93.91836556685915,8,51.0004626,-1.523224801
Arzano,93.90285688633227,6,47.88734811,-3.5081059300000006
El Escorial,93.71195849830616,5,40.58728579,-4.098621113
Lugo,93.68011910645083,12,42.98088292333333,-7.521374531333334
Saint-Ismier,93.65988648923133,4,45.24645457,5.826559444
Ripollet,93.60060364483913,2,41.49969,2.1543153
Binche,93.5423426747903,6,50.42235158,4.19138174
Can Pastilla,93.53533411387113,8,39.5316256,2.729698531
Bayreuth,93.36340619566433,10,49.934500471,11.604571541
Roth,93.30389177945591,5,49.23350741,11.1161883
Godmanchester,93.26772416095876,6,52.31893901,-0.17634684739999998
Skelmersdale,93.25935500720402,13,53.55900174,-2.763541182
Montigny-lès-Cormeilles,93.13830947268609,3,48.99368567,2.194336548
Bains-sur-Oust,93.1351564800309,9,47.69764144,-2.058078135
Templin,92.96447096672593,8,53.14878855,13.58867696
Villiers-le-Bel,92.94346658256825,6,49.001843830000006,2.407501089
Boussu,92.91274125987634,7,50.4241358,3.820916812
Pueblo Nuevo,92.88903196915103,7,39.01604103285714,-0.6623953569285714
Ashton-in-Makerfield,92.80437486144532,9,53.49569764,-2.650998094
Stadthagen,92.79845723943147,4,52.30705529,9.217586242
Raunds,92.43868627584025,6,52.33379369,-0.6008499037
Alzenau,92.38127856431075,4,50.08500291,9.079853989
Franconville,92.3052411081398,7,48.99279334,2.227084278
Courbevoie,92.1315495255315,13,48.89839628,2.255652433
Laventie,92.09221323193668,5,50.61998781,2.799623406
Watford,92.05783021595342,8,51.64813112,-0.4159425791
Amilly,92.04501849019051,9,48.00392193,2.781357281
Uddingston,92.03056374045343,5,55.82439364,-4.079853473
Mislata,91.99310517039558,8,39.47576851,-0.4206130067
Alpedrete,91.94609942733052,6,40.65005122,-4.03059391
Chippenham,91.8830000674352,5,51.49194568,-2.046145888
Seninghem,91.85524923531332,9,50.68400498,2.079181235
Wallsend,91.74046212311045,4,55.0015754,-1.518288738
Rheinfelden (Baden),91.70096154600279,7,47.58635843,7.769061213
La Valette-du-Var,91.42404401349883,4,43.15000342,5.992068397
Évellys,91.34687473086377,5,47.92042462,-2.823534166
Archena,91.32857014746077,5,38.11232012,-1.296813682
Troyes,91.20073576516671,11,48.296778280000005,4.078518553
Medina-Sidonia,91.19928046023392,3,36.4420262,-5.922548564
Le Poiré-sur-Vie,91.1604697491692,8,46.80299575,-1.454812781
Hemer,90.68966122236372,11,51.36794084,7.777131577999999
Ciudad Real,90.64302147742687,5,38.958836114,-3.9435435839999995
Alcácer,90.61347570194985,8,39.38108566,-0.4471561843
Nordhorn,90.60453230062365,5,52.445888552,7.1129657586
Witham,90.58598259352922,6,51.81172206,0.6400315203
Frencq,90.41155407079869,12,50.54980787,1.6957139979999998
Ploemeur,90.28548516816471,6,47.73243505,-3.442200929
Verviers,90.24344012158878,10,50.581907815,5.860686745600001
Chatonnay,90.18643094636997,15,45.492105169999995,5.134981059
La Garenne-Colombes,90.12431637014244,6,48.9068666,2.245262618
Orpington,89.98957979981937,11,51.35710579727272,0.09623362464545454
Garbsen,89.97143404254004,5,52.451141989999996,9.5665667748
Sagunto,89.88353962906571,5,39.69231484,-0.284684181
Lézignan-Corbières,89.87473610674245,9,43.16635452,2.78911087
Gavere,89.7432307767071,3,50.92894929,3.6855802459999993
La Flèche,89.73571677959411,4,47.70787116,-0.1036250427
Chichester,89.60235279768528,3,50.841700089999996,-0.7813344021
Freudenstadt,89.52904194675885,7,48.47962541,8.414505308
Pontypool,89.43050540624242,10,51.72713130999999,-3.043222253
Urbanización Villanueva,89.31088291660562,5,38.39550866,-0.5885414815
Sindelfingen,89.22462199342912,4,48.71097952,9.051053832
Archamps,89.19432650819229,10,46.11519691,6.104791706
Nivelles,89.1798605559702,10,50.591255067999995,4.3365323012
Perillo,89.16619406880888,8,43.33249761,-8.369401904
Saint-Gratien,88.96948618266882,7,48.96909458,2.28470332
Vouillé,88.58848512293463,4,46.62247973,0.122290376
Boulay-Moselle,88.56155473211564,6,49.18416413,6.495911016
El Masnou,88.50598706374873,4,41.48274861,2.318545472
Torrevieja,88.332939233232,10,37.993971776,-0.70237169062
Baracaldo,88.29703669638084,8,43.2732661175,-3.005614906375
Olen,88.19611582893134,8,51.1635178,4.885824327
Agde,88.12148082022345,4,43.308904,3.48463234
Cachan,88.0641007705218,9,48.79162678,2.331896462
Kempen,87.90366492570105,10,51.378447140000006,6.437545768
Bagnolet,87.86476501597356,8,48.86903733,2.422710755
Zonhoven,87.86355336217558,6,50.99189551999999,5.376572017
Ballan-Miré,87.60510933985219,4,47.34262028,0.558366034
Mercurol-Veaunes,87.45172055717212,7,45.07300002,4.883588852
Los Camachos,87.36708594009593,9,37.67488223,-0.9251903645
Albstadt,87.15533769866981,10,48.26653969,9.014037428
Horley,87.15404060808143,14,51.16826056,-0.1685357437
High Wycombe,87.11861909534838,4,51.63801717,-0.740964985
Burgdorf,87.1063463570288,2,52.47086569,10.01721554
Freital,86.88774180550564,5,50.99826468,13.634410059999999
Zaventem,86.87026123068087,8,50.87723248,4.47665210325
Lurgan,86.75931303690191,7,54.45507757,-6.342679059
Basauri,86.4170753912729,8,43.23160539,-2.88845767
Frasnes-lez-Gosselies,86.39733797377278,3,50.5336555,4.440338386
Houthalen-Helchteren,86.383400066362,5,51.04527566,5.408406455
Grantham,86.2071853804701,11,52.91315494,-0.6311956036
Lommel,86.20025269439677,4,51.22563839,5.30209038
Neuwied,86.18676818923274,5,50.45475235,7.5251881449999996
Chabanière,86.11571419178138,6,45.61210161,4.63981599
Weißenfels,86.01769782228395,4,51.20156608,11.93743562
Tewkesbury,85.97099177050453,6,52.01211451,-2.114773371
Crawley,85.95320916357998,10,51.112928012000005,-0.16266933872
Westerstede,85.87804154686478,7,53.26161021,7.922373193
Veriña,85.81157333671337,5,43.54121415,-5.714599487
Narón,85.76685287685777,6,43.52463254,-8.153959054
Sangonera la Verde,85.65711948827692,5,37.92792459,-1.208009592
Salzkotten,85.6058314482738,4,51.67450398,8.602223838
Sutton-in-Ashfield,85.58120417731497,7,53.12084413,-1.262923812
Quessoy,85.50667401726565,3,48.46223028,-2.653233248
Thonon-les-Bains,85.18395931825728,9,46.34132371,6.505484373
Mont-Saint-Guibert,85.14666021804712,2,50.6372218,4.623322908
Rijkevorsel,85.09999975189567,3,51.35506096,4.767377297
Cuarte,85.03204891543149,8,42.09435318,-0.4587979393
Poitiers,85.00198306998499,9,46.58382323,0.3598090766
Newtownards,84.92100850285962,5,54.537421589999994,-5.729477997
