city,total_margin,orders_count,lat,lon
New York,23398.239431719627,1492,40.73415257508713,-73.91937941732574
Los Angeles,12709.832792684327,763,34.09752660547837,-118.36058228519005
Houston,10983.154914281287,689,29.803810254194484,-95.45892241687953
Las Vegas,7053.243887051082,403,36.14563305672456,-115.15701249205955
Chicago,6623.367687069755,467,41.8606247856531,-87.68303334747324
null,4845.846391607496,296,35.77824419334459,-82.21391586199324
San Antonio,4511.799192550668,279,29.480353031792113,-98.52539535297491
Phoenix,4260.488130012136,262,33.49619192767175,-112.09070890458015
Philadelphia,3981.5607726811795,256,40.01263767679688,-75.13958440898438
San Diego,3866.1787775913044,269,32.81936393929368,-117.14060758401487
Dallas,3383.2607239079134,225,32.956790035333334,-95.14942831639999
Columbus,3318.5990278230156,220,38.91379187881819,-84.355102392
Charlotte,3008.049610836805,186,35.23170542618279,-80.80403430010753
Fort Worth,2863.340236415834,170,32.78594745241176,-97.34425529535295
Austin,2810.9944558930442,191,30.740133427434554,-97.59336042617801
Louisville,2733.5879076765395,159,38.27057518201258,-86.65510786786163
San Jose,2303.0354101189096,191,37.30424222141361,-121.83925622931936
El Paso,2257.315934414078,119,31.818236192436974,-106.42773348739496
Indianapolis,2249.1006678280733,174,39.78341753649425,-86.12331789971265
Memphis,2196.65586538496,110,35.12516373463636,-89.91735423863635
Riverside,2133.5011617373225,135,34.107083729925925,-116.69845935962964
Albuquerque,2126.1262035610816,124,35.117917539919354,-106.66311988225806
Long Beach,2120.220636362383,113,34.46390213734513,-113.83341741734513
Roseville,2104.6312167216333,90,40.39036719733333,-108.26777378999999
Raleigh,2092.6487406251276,146,35.816897064246575,-78.63140674575342
Columbia,2030.7179231862137,145,36.554806268068965,-83.0849934710345
Tucson,1947.0756835490654,115,32.21182248269565,-110.95920308869566
Lakewood,1797.6288197607385,81,39.63730969345679,-98.03560531765432
Bakersfield,1787.1752077350914,108,35.35590370898148,-118.98745238333333
Fresno,1743.9628144076462,98,36.627621799591836,-119.29380469061223
Jacksonville,1691.470985190968,152,30.705177401052634,-82.1547350563158
Milwaukee,1688.3984395911473,100,43.0562459289,-87.95816771060001
Nashville,1665.978700339529,103,36.12157286126213,-86.76809437475728
Orlando,1665.8232575173558,89,28.51444634831461,-81.38144415606742
Virginia Beach,1583.3770411207895,87,36.838871126781605,-76.10550004551725
Arlington,1534.171526511718,125,34.75303864464,-91.29652840624
Seattle,1510.009145539838,89,47.626825553483144,-122.30576908314606
Aurora,1469.4208574846002,100,40.253834596,-100.1660859174
Denver,1456.0557518303808,69,39.69843039115942,-104.99281508550725
Colorado Springs,1413.258061564775,116,38.865808672586205,-104.7725108137931
Gainesville,1408.542377226604,81,33.74505841580247,-83.22809666728395
San Francisco,1395.9242208059775,120,37.76387286091666,-122.43891171166666
Durham,1356.604565652742,93,36.39011094344086,-83.9821384216129
Atlanta,1354.7838663935215,64,33.76355058859375,-84.4077977521875
Boston,1336.1749813828792,88,42.304067447954544,-71.09091499840909
Plano,1327.3676078135902,92,33.89474315608696,-95.93218871347825
Pomona,1307.8670889326997,54,34.05577451833334,-117.75730455
Honolulu,1292.9315638985524,81,21.30888518641975,-157.8127535506173
Detroit,1281.3053849833136,78,42.388740824358976,-83.16516214333333
Glendale,1278.3771967023097,68,33.729036312058824,-113.60580809999999
Springfield,1269.2610365748706,79,39.29579427341773,-92.81144108481013
Fontana,1269.0998238948011,57,34.10535669894737,-117.46415144912281
Mesa,1217.239481768048,105,33.41187319409524,-111.76191728
Woodstock,1210.933998508345,57,35.85339324596491,-85.35512136280703
Omaha,1204.7242531962884,56,41.26677472678572,-96.06269781607143
Hayward,1179.9611382421779,49,37.652232283061224,-122.08107527959183
Fullerton,1154.5028002341235,42,35.01075477595238,-110.84213407952382
Washington,1149.7782313881753,102,38.809112471764706,-80.38661832147059
Stockton,1145.5857107083662,89,38.00238195865168,-121.32529237977528
Auburn,1120.0507456074897,61,42.308226178360655,-107.72320662442623
Oklahoma City,1108.6605866215034,85,35.520938822235294,-97.59383888917647
Greenville,1098.7245251185159,63,35.42434386428572,-78.36661271857143
Dublin,1086.744378701344,36,37.81921873416667,-92.78391500861112
Ontario,1076.8209993508206,78,34.041629500897436,-117.61405434871794
Tampa,1075.2977409842388,62,28.02883243854839,-82.4183457933871
Lafayette,1074.3858194227491,47,35.19071512425532,-97.23029376170213
Temecula,1062.4748538853091,74,33.51419322743243,-117.06476939054055
Baltimore,1054.347271317087,91,39.314216295824174,-76.62183457076924
Sacramento,1039.438935498934,56,38.57935450714285,-121.48624031607143
Monroe,1037.3665479598278,60,35.420050307833336,-84.91613058916667
Arlington Heights,1035.188586664418,43,44.10445990232558,-96.67106665372093
Portland,1020.0806266367894,91,45.12637980461538,-116.08105908659341
Richmond,1018.0754413252116,72,38.05275136277778,-93.97925570569444
North Charleston,1017.451061034181,56,32.92114105482143,-80.10370071803571
Lancaster,980.7538775301459,78,36.82749822858975,-98.87247286461539
Toledo,972.1246431976613,57,41.6739503154386,-83.59623684894737
Santa Ana,966.9931507620695,57,33.72772835421053,-117.89224293508772
Leesburg,964.2705627568089,31,36.80354335709677,-79.32281997064516
Franklin,957.9852648399117,59,38.67640992118644,-85.95749255033898
Miami,951.8922836248587,64,25.775124519687502,-80.2449441325
Chesapeake,936.5024540411813,47,36.731051524468086,-76.32369242
Fremont,928.2824043091059,70,37.91157457557143,-118.271611779
East Los Angeles,907.7430872174479,52,34.03781749807692,-118.17518284230769
Reno,896.4726471136228,49,39.48443049877551,-119.79341399795919
Boise,893.9439724284885,50,43.6195579788,-116.29363342999999
Irving,888.4456455707626,55,32.831817650727274,-96.96278395636364
Hialeah,885.431422778419,59,25.871579152711863,-80.31397053711864
Port St. Lucie,884.57550417578,40,27.2877725075,-80.359733699
Lindenwold,878.7119559400406,33,39.80630675,-75.00090031
Spokane,862.9042203383158,33,47.69338023060607,-117.42574813333333
Salem,861.6762768048964,73,42.83608497643836,-100.7008244390411
Vancouver,847.14644032299,46,45.634707811304345,-122.52737003913043
Burlington,829.9358071029122,70,39.32732470285714,-82.25847816085714
McKinney,829.48275088128,53,33.186682076981135,-96.67828123245283
Thornton,826.1629111455434,52,39.89880557384615,-104.96686978653847
Madison,824.5177262152766,58,38.77776416655173,-89.0685829363793
Concord,819.215740407948,62,37.26448849822581,-100.96418347870969
Gilbert,818.9205915166291,57,33.32386387807017,-111.76666691403508
Tallahassee,816.213693318453,63,30.509690836031744,-84.25981314206349
Appleton,813.9539470820366,47,44.26551603914894,-88.39274807234044
Baton Rouge,813.0720213436532,36,30.432565174999997,-91.11962627972223
Minneapolis,808.9272067360306,52,44.95239482884615,-93.25528922346153
Carrollton,806.9697798118954,51,33.16136696215686,-93.65948629196079
Anchorage,806.8887095734367,43,61.16247152046511,-149.65714866976745
Sugar Land,805.9341993923018,60,29.592683703,-95.63383509583333
Augusta,797.8054447099403,48,34.540795530208335,-80.79440385770833
Plainfield,797.5124243979442,41,40.88695807292683,-85.95634103292683
Fairfield,789.0214219526549,45,39.308883685333335,-92.40125155866667
Oakland,785.9361372158203,59,37.79230055728814,-122.21787687457628
Hillsboro,783.2039113450542,42,43.53305563666667,-110.77542046285714
Greensboro,782.9943659954387,37,36.062340432702705,-79.8104836445946
Clarksville,777.2513983511783,41,36.54078183829268,-87.35959187902439
Oxnard,775.5581373788619,57,34.19390737035088,-119.16807947894736
Knoxville,772.1943003330367,49,35.936216168571434,-83.99205774040816
Anaheim,771.1673835852573,61,33.826420487540986,-117.91074753278687
Athens,768.9133962435634,46,35.44356565608695,-83.64208740934782
Montgomery,768.1533512176072,57,33.056368900526316,-91.2434122254386
Modesto,767.7080411235881,64,37.653222047968754,-121.0258893328125
Mansfield,763.4705187630351,31,37.070332799999996,-89.12747805806451
Bellingham,754.6562675043062,24,48.77004972375,-122.48223513750001
Spring Hill,747.151917776377,36,29.683556834444445,-83.2689568713889
Westfield,741.559732101173,40,40.419009991,-80.178690413
Miramar,741.2902409680992,59,25.9851762520339,-80.26986034457627
Glendale Heights,739.8591799772544,11,41.91934223,-88.0774339
Denton,735.4613875475492,41,33.212455399512194,-97.12364182
Bethlehem,733.6185060783777,33,40.19543029272727,-75.91176611787878
Rowland Heights,731.2414463243434,19,33.98062425,-117.90161799999998
St. Petersburg,729.6369586680123,59,27.80716284423729,-82.66830294457627
Cleveland,728.2347716929726,46,38.526373801956524,-83.04423228369565
Burnsville,717.6881960224576,21,44.77773026,-93.27403534
Sterling Heights,716.5170311409204,35,42.57528009828572,-83.02188295171429
Corpus Christi,714.064715018489,47,27.67897499042553,-97.42806015446808
Lockport,697.7192200786689,34,42.56183049176471,-82.27235321441175
Moreno Valley,693.1403210970067,55,33.918555465454546,-117.2200991418182
Pasadena,689.4166156221426,63,31.03472998047619,-102.09599488904762
Hayesville,684.916346327868,20,45.02022294,-122.9238722
Atascocita,682.2164702026794,26,29.96227307769231,-95.23427146153846
Hickory,681.412375266747,27,35.73201546888889,-81.34783217814814
Ashburn,679.8522081791532,36,39.04115859,-77.48009503
Sherwood,679.4506990832998,29,38.87126951586207,-103.86506480689654
Olathe,678.6567246005924,42,38.85140015261904,-94.80764493833333
Cumming,678.3214751903447,50,34.207046084000005,-84.12888625200002
Grand Prairie,676.9012810488332,34,32.697441594411764,-97.01846147529412
Conyers,675.640485232011,30,33.639900386,-84.02764428799999
Pearland,670.1103739524442,29,29.553528539310346,-95.31883595344829
Everett,666.3474950736191,41,46.594190769024394,-109.72554358536586
Oswego,665.5897231981886,20,42.55049385,-82.3918538
Salisbury,665.3601325772694,43,36.61435639232558,-78.80992907976744
Marietta,664.6845136010736,43,34.21822177325582,-84.34101816744186
Laredo,660.1816794773011,47,27.603275802978725,-99.5193752712766
Rialto,659.5310592709562,34,34.62601657,-117.464853
Jurupa Valley,654.3734586917376,31,34.00064859516129,-117.47405539032258
Newark,654.243895999954,50,39.6959801812,-89.50978293680001
Lexington,650.6389740044732,61,36.431870582131154,-83.03887458049181
Smithtown,645.7667419015175,14,40.85330935999999,-73.21022626
Fayetteville,645.5672710923543,51,34.775827465490195,-82.31760269196079
Bismarck,644.7290081849346,34,46.78043238911765,-100.66974132941176
Battle Creek,643.6142468996655,10,42.27025359,-85.23356008
West Valley City,640.7278628684878,49,40.68730147591837,-112.01224860204081
Murfreesboro,640.4453457687342,35,35.85480868771428,-86.40026055257142
Torrance,640.2245818208572,36,33.837043353888895,-118.33753535277778
Hamilton,637.009053743975,43,39.43234598581395,-82.06288247093022
Winter Haven,635.2144668105881,30,28.019616267,-81.714899375
Fairview,634.4808469398936,31,35.070144124838706,-81.81250379612904
Hanford,632.2724296155375,26,36.28352886,-119.6217614
Beaverton,631.8258595325801,58,45.4807397887931,-122.8206726586207
Clovis,631.7355312012072,49,36.271755019591836,-115.64042733265306
McAllen,631.4124088500686,46,26.21645664934783,-98.24333747630435
Naperville,631.1842351418452,36,41.73513817416667,-88.15241862750001
Rockville Centre,630.78402814939,14,40.66619968,-73.63867667
Woodbridge,628.3629863345442,31,38.62340374,-77.26280784
Darnestown,617.4651201219318,33,39.127689440000005,-77.28800531
Garland,615.2027230409439,41,32.90946973439025,-96.6285304097561
Georgetown,613.7447123337623,46,34.47370620891304,-86.04709896521739
Cape Coral,612.6240546774868,43,26.639297946744183,-81.97780780465115
Vista,611.813971953391,39,33.202363653333336,-117.22719485897436
Bensalem,610.8880040383218,25,40.10461809,-74.93873121
West Goshen,607.5744973224131,33,39.94574316818182,-75.61138910272729
Powhatan,603.6699987761676,2,37.54988993,-77.93165723
Fort Lauderdale,603.6214756532354,41,26.146823969268294,-80.16443557658536
Wichita,602.5605558595718,39,37.68483195692308,-97.38831645128205
Broken Arrow,601.7505314069408,34,36.02978309117647,-95.77446788764706
Taylorsville,601.387820764025,21,40.655985452857145,-111.93898612857141
Hoover,599.5817620995662,39,33.381344857692305,-86.78723990692308
La Crosse,595.1223526365995,32,43.80038568,-91.14956747
Naples,593.655516849611,24,29.13314534458333,-87.53244502708333
Johns Creek,593.6195537117925,34,34.02850715647059,-84.21846795823528
Elgin,591.6288725351714,38,37.11303537394737,-92.11175166026317
Winston-Salem,588.0989989775381,41,36.06598105170732,-80.25533983292682
Roswell,587.3530354747884,25,33.5766046676,-95.5576949432
San Bernardino,587.0506475105112,39,34.183888406410254,-117.30235532307692
Nampa,585.7913452685516,34,43.56269872617647,-116.59580772352942
Corona,584.4511431187564,44,33.83032751931818,-117.52672835
Conroe,581.6108270471084,38,30.33141250789474,-95.43887595052632
Santa Clarita,579.2239483926531,49,34.427309079387754,-118.49342670612245
Lincoln,578.72546813553,48,39.708469928333336,-111.05359510770832
Shenandoah,576.6338223540637,5,30.374781669999997,-90.97893901
Green Valley,576.3037178335561,21,39.39517587,-77.15810235
Spanish Springs,572.5331447873756,7,39.61186716000001,-119.6989061
Chico,569.908898846988,26,39.78612330384615,-121.84827388846155
Scottsdale,569.4448026392179,34,33.57359722882353,-111.88632711764706
Huntington Beach,569.1846416257454,37,33.69574064675676,-118.00270887837839
Dover,567.8288503497276,24,40.34677459291667,-74.16957778375
Avondale,567.381330289385,25,33.439448584,-112.321254288
South Fulton,566.8295731242349,44,33.62409719181818,-84.52569820272727
Redlands,558.5972579099978,21,34.03966306904762,-117.16266993809523
Rochester,558.560471606439,39,43.54563776846154,-84.51270338923077
Broomfield,558.2937759790161,17,39.93002977,-105.0747986
Plymouth,557.5053414831519,18,41.88369428,-70.62768791
Carmel,557.3884514161875,37,39.971707307027025,-86.13326917675676
Fountain Valley,556.7270672848625,21,33.71045239,-117.95127690000001
Huntsville,556.6846252280309,34,32.99602223735294,-90.52258814735293
Citrus Heights,551.6592952360945,22,38.69522672954545,-121.28339316818182
Grand Rapids,550.9524422623797,31,42.96561653677419,-85.66243365612904
Clinton,550.2028326492252,37,38.203779551351346,-79.59000829243244
Auburndale,549.6649463492308,18,28.08444516,-81.81324774
Brentwood,548.9251048084436,31,37.978875329032256,-96.80428923225807
Jackson,546.6231946404642,30,34.851612128333336,-89.11393472
Eugene,545.1804577890236,50,44.038150720000004,-123.146845378
Tempe,544.7322785967519,37,33.387558842162164,-111.93201596486486
Delaware,542.1841141900416,30,40.29746726,-83.06203647
Arden-Arcade,539.2389851934653,31,38.59802819741935,-121.38651128387097
San Benito,537.5205840797317,21,26.10708885,-97.63775797
Town 'n' Country,537.128406788651,25,28.000238003599996,-82.5702646564
Fort Collins,536.5093142513895,37,40.58087685756757,-105.05156152162162
Canton,535.3005490356919,31,38.327129354516124,-83.9775628648387
Fenton Township,529.6748602601546,6,42.75892758,-83.74242662
Salt Lake City,529.2712828607312,38,40.75222634868421,-111.91195441052632
Bloomington,527.942754284691,47,37.58325489425532,-97.35206622936171
Savannah,527.6457688079098,36,31.997673182777778,-81.14190256138889
Redwood City,525.9175368138193,18,37.50042885166667,-122.20960873888887
Bend,525.608541939345,35,43.99644024971428,-121.23076661428573
Medford,521.0617101233555,27,41.99256545074075,-106.09684165444443
Conway,515.0864484603372,34,34.51803386029411,-86.514532145
Greensburg,513.785842502844,24,40.31651855,-79.53448425
Kansas City,512.5656413164658,44,39.175895754318184,-94.56652236977271
Linn,512.169307683375,17,26.454135432941175,-98.17126784588235
Bellevue,511.61604273546703,31,45.70299563451613,-114.54106145322581
Apopka,510.3077648621001,33,28.707972882727272,-81.53644647
Henderson,509.8367879428882,23,36.40729914869565,-109.04168101304347
Belton,503.38637466835985,28,35.47711428428572,-95.81994504142857
Union City,503.1959313084319,24,38.784828927499994,-104.04081048625
Corvallis,503.1469180042399,22,44.63690389,-123.27622300000002
Kingston,502.3732059594736,22,41.66480782,-74.80570917363637
Buckeye,501.9749931378302,23,33.45401140652174,-112.46058209565217
St. Cloud,499.7219242956811,33,32.954423706363634,-84.81133530787878
Lauderhill,499.3824968009566,24,26.16763743125,-80.22638401333334
Idaho Falls,499.3051066434721,19,43.51839534842105,-112.06294472631579
Beaumont,497.0510880417314,39,32.39485241358974,-108.2151893153846
Frankfort,493.7857877135023,13,39.73126941076923,-86.24566232999999
Brighton,493.4242096536302,21,41.395524365238096,-92.4585298952381
Westminster,491.7609733988598,34,37.72584478029412,-109.62434805882353
Huber Heights,489.9986045912045,18,39.84637026,-84.10924926
League City,489.6930509068716,22,29.49727435,-95.09144539
Apache Junction,488.9357855576166,37,33.45908286108108,-111.41362086486485
Rexburg,488.5759528370985,16,43.8153559,-111.843299
Goldenrod,487.7544039859998,26,28.61062697,-81.29899858999998
Miamisburg,485.64873686374716,8,39.63085901,-84.27571176
Saint Paul,482.8991282206978,28,44.94966111821429,-93.05508105214287
Lansing,480.8547530752551,26,42.38558567038462,-85.35896401346153
Blaine,480.163505762617,16,45.1700136625,-93.22947251125
Joliet,479.5370081571392,25,41.5639644308,-88.21658112760001
Elk Grove,479.528361843293,33,38.41528940090909,-121.39815625151515
Baldwin Park,478.53473957962615,20,34.09454547,-117.9681652
Yuma,478.18032805165814,31,32.929375446774195,-114.3562097
Hawthorne,477.71484390038717,38,33.91419704,-118.34896690000001
Holly Springs,476.67516164037306,27,34.78118755296296,-82.15069780296297
Kings Point,475.95021527422347,16,26.45499467,-80.17269726750001
Coon Rapids,475.7278438260654,18,45.17795651111111,-93.30855838333333
Folsom,474.4440162147784,26,38.66548324,-121.1449789
Albany,473.74547895912053,16,43.584763830625,-114.525181753125
Jersey City,472.9651252466389,29,40.72550146344828,-74.06433560517243
Pasco,471.5571309422037,32,46.41834569,-118.9074779
Norman,468.94206883421964,26,35.239943675384616,-97.44227296615385
Jonesboro,467.316603594386,31,35.006011159354834,-88.45244711483872
Westland,465.5811206955331,17,42.32854952352941,-83.38199620235295
Tacoma,464.93751245846875,30,47.237609823,-122.43630648
Florence,464.9370516832155,36,35.20625567388889,-92.62507617805555
Burbank,464.44499017591795,17,37.29230799411765,-105.75594732235294
Superior,464.2265963937599,9,46.59750895,-92.13057171
Palmdale,463.41913825681206,31,34.507667546774194,-118.1429557935484
Hattiesburg,463.1988295426962,23,31.223230556521738,-89.27215996130435
Little Rock,463.1487378020791,18,34.68941290833333,-92.33219672333333
Amherst,462.1318318930529,22,42.507806405454545,-73.91131161181818
Mirrormont,461.69274323304967,14,47.49526773,-121.9827963
Longmont,461.6890118315747,29,40.16549905931035,-105.09078096206896
Lowell,460.9199943816319,22,42.63592310590909,-71.30924482818183
Wyoming,460.246645290966,27,42.89609028481482,-85.70785931074073
West Jordan,458.6380382720325,28,40.60361859964286,-111.99403865714285
Loveland,458.6188564095176,45,39.83447699311111,-94.47764778888889
East Windsor,458.0956416264873,9,40.25696169,-74.53211317
Wilmington,454.47609289059056,38,36.26489465289473,-77.01739258368421
Buena Park,453.7181073084211,34,33.854385990588234,-118.0061314764706
Troy,450.9276922239992,32,40.79416569,-81.92213836875
Arcadia,450.02563061520596,26,34.141198341153846,-118.03178081923078
Monrovia,449.9157699429407,13,34.17021125,-117.9955545
Springdale,449.7749386850329,23,36.183372616956525,-94.16054498652173
Vacaville,447.60219875171583,30,38.366922241999994,-121.96014653333333
Eden Prairie,447.4724988923675,25,44.830619139999996,-93.46491869000002
Saint Charles,445.7986807413205,31,38.761109401612906,-88.31956292967742
Kaufman,444.57399592045147,22,32.57100984,-96.24513235
Overland Park,444.2933071718962,32,38.9239656890625,-94.689943995625
Miami Beach,442.25560709624034,22,25.79724550590909,-80.14644011363636
Hampton,441.6823432890075,22,35.728477081818184,-79.27311988272727
Apple Valley,439.342275908182,37,35.65214812405405,-114.56030448486487
Bayou Cane,438.19470213263793,17,29.6359434,-90.67203521
Danbury,437.85531684240385,42,41.403728994285714,-73.47224449571429
Warrington,436.7962164062786,21,30.33671992,-87.38208729
Brunswick,432.9041640553741,13,38.14347483769231,-81.72471697615384
Greenfield,431.1535296000553,23,39.80335537,-85.76473616
Leavenworth,431.0124475571783,26,39.27743252,-94.98652639000001
Macon,430.14305404652515,16,32.8676026975,-83.716615611875
Mandeville,429.5219743507377,16,30.391812033125,-90.0479936375
Lawton,428.43952113364804,23,34.59165813,-98.48498215
Chula Vista,428.3307447546657,55,32.61841910709091,-117.03386228545453
Billings,428.20913800783643,35,45.84037120885714,-108.50791975714286
Bowling Green,427.8338590718858,24,37.35051751416666,-86.23329033750001
Findlay,426.6430630887208,15,41.02699713,-83.64905915
Coatesville,424.9950015984483,9,39.9722112,-75.83228857
Lilburn,422.4560545927385,24,33.87093061,-84.11291319
Aquia Harbour,422.0462653111816,16,38.43320917,-77.37717634
Union Park,421.8438354453158,27,28.550651065555556,-81.2415074148148
La Verne,420.7245507860023,18,34.1648654,-117.77410930000002
Cedar Rapids,419.75307908553117,29,41.99455245206896,-91.6940936037931
Moorestown,418.97777312873535,18,39.97937458,-74.94057641
Brandon,417.3385326873462,25,30.842335028800004,-87.45823633440001
Des Plaines,415.46461454839334,30,42.03996716533333,-87.89256703533333
Cary,414.66997442034074,41,37.35455898195122,-81.10852217585365
Gastonia,412.7095420149511,27,35.23922359925926,-81.13722272148149
Indiana,412.4289782711633,10,40.62971305,-79.15384058
Pittsburg,411.94082186118334,30,38.01139832,-121.91112360000001
Jackson Township,409.0295238940398,24,40.0999727,-74.35179289
Hagerstown,408.4821912920507,11,39.63434299,-77.74040937
Cornwall,408.28097167564795,17,40.29502626,-76.42474632
Odenton,407.83640634739123,27,39.05433411999999,-76.71817279
Franconia,407.60858359818553,20,38.75636562,-77.14893584
Mesquite,406.7557743932882,25,32.795591733600006,-96.61797646
Las Cruces,406.24336359403077,19,32.42780612421053,-106.77140979473684
Longview,404.5603408086149,23,34.87752014913043,-99.66434544130435
Chandler,404.0113364805997,33,33.2888689269697,-111.85561486666667
Brownsville,403.80657991202247,40,25.983174356250004,-97.5077983495
Lucas,403.2924709434825,24,33.08910561,-96.60836540999999
Kennesaw,403.27637509182586,19,34.016833023684214,-84.61987230157895
New Britain,401.4432443846833,20,41.673415469000005,-72.77644441300001
Fargo,399.6733757181595,38,46.84619665447369,-96.8338261613158
Dundalk,397.0587780582457,19,39.25954032,-76.49645645
Lenoir,396.155137393512,18,35.97786023,-81.54228009
Brick Township,396.1464921403471,24,40.06919722666667,-74.11317393750001
Pleasant Grove,395.3874220702038,15,40.38998751,-111.73556089999998
Lakeland,394.2611795952333,34,29.12762241235294,-83.09145651647059
Rapid City,392.8379679103819,27,44.12071689666667,-103.23962481111111
Point Pleasant,392.16011605886547,22,40.0805052,-74.05953875
Statesville,390.629719221932,18,35.78561505277778,-80.91333846166667
Goodyear,389.40003614487495,22,33.41888562454546,-112.40534259545456
Waterloo,389.2149390975312,8,42.41842434,-92.34214385
Charlottesville,388.2247084382488,28,38.024434205,-78.58951667071429
Alexandria,386.6160097719302,31,39.95055292806452,-80.05031562
Tuckahoe,385.182414726326,26,37.590638254615385,-77.59420699230769
West Palm Beach,383.8598589904411,24,26.732554904166665,-80.0955565675
San Tan Valley,383.80258185482376,35,33.204683564571425,-111.51563844857144
Visalia,383.6052447138532,31,36.34880556806451,-119.33200356451613
Snellville,383.38814624032227,19,33.829317369473685,-84.02601660157895
Middletown,383.2068469971141,31,40.154970098387096,-79.1026476367742
Medina,382.75418549829425,26,41.14254534,-81.85729604
Calexico,382.26527830000094,13,32.68637282,-115.5754206
Chino,382.09954819902,18,34.00493419,-117.6820302
Flagstaff,381.80869992798597,28,35.332645739642864,-111.55008450357143
Maple Grove,381.56800453642626,24,45.12085048,-93.45662984249999
Allentown,381.20160884821496,26,40.60314122,-75.51484162615384
Escondido,381.0147713796154,24,33.134663958750004,-117.0345144375
Elmhurst,380.6307494862035,21,41.89629936,-87.94188008
Cypress,380.49891150544966,22,31.01355535,-101.80899700545454
Santa Maria,380.1417847377737,34,34.951334075,-120.47495190882353
Antelope Valley-Crestview,379.48326695669437,3,43.86892422,-105.5925035
Hemet,379.47262591649576,28,33.71914360714286,-117.01606762142856
Newington,378.91999364519285,22,39.279094110909085,-76.41565115727272
South San Francisco,378.74519478512195,23,37.65517494,-122.42237279999999
Victorville,375.65207778293876,29,34.50466339551724,-117.36270922758621
Oxford,375.2088708075688,14,36.01651933857143,-85.36443825285713
Mobile,374.8758800622538,34,30.636385157941177,-88.19701885794117
Killeen,374.1730329425868,21,31.029628413333334,-97.73332796285715
West Chicago,373.2648324994852,20,41.89528049,-88.21123277
Yonkers,372.6410384232659,38,40.937519036842104,-73.8762411218421
Parole,372.5444222495821,10,38.98952642,-76.55024248
Irvington,372.29604820029846,19,40.72414314,-74.23188767
Newport News,371.4895987517204,31,37.098773060645165,-76.53725855612903
Santa Rosa,370.9281121334655,30,38.43464039366667,-122.73547730333333
Santa Cruz,370.79191312588557,24,36.9989692375,-122.059171375
Palmetto,370.45012897929917,21,27.58805367,-82.53880647
Rancho Cucamonga,369.9148831834454,37,34.1473804745946,-117.56503327027026
Rock Hill,369.65056550812506,24,34.92774872,-81.051384415
Lake Charles,369.2798267936661,20,30.116913388,-93.2283208395
Upper Arlington,369.18890518757576,20,40.033838266,-83.0738671125
Glassmanor,369.178013606981,3,38.80484638,-76.99749268
Parma,369.0806798662711,17,41.38653554352941,-81.71306693470588
Lawrence,369.03811156600534,33,41.07835361696969,-81.55706907272727
Eagan,368.906957718961,17,44.80758098529412,-93.18818919058825
Horizon West,368.8768215458232,16,28.49148459,-81.62600664
Logan,368.5046763060739,7,41.75703295,-111.7185901
Plantation,368.27349790660116,20,26.111426369000004,-80.240758211
Peoria,368.0321372781282,34,35.08750707382353,-107.59050145147059
Buford,367.53578094114005,30,34.11144161,-83.986465468
Sevierville,366.8979081170657,29,35.829491006206894,-83.52797303931034
Dale City,366.82035368620933,17,38.64334556,-77.34835872
Paducah,366.33827319653403,24,37.02850531333333,-88.66972209
Sandy Springs,365.94338999671925,22,33.91376079727273,-84.36689076454546
Meridian,365.5496894388576,26,39.687703636923075,-106.784541035
South Valley,364.6762866005222,20,34.9731814,-106.6216512
Zion,362.87085548676544,17,41.64547648882353,-82.51594454117648
Bay Shore,362.72632353570464,18,40.72408702,-73.25515356
Scraper,361.9377778448915,12,35.96748702,-94.92113639999998
Menifee,361.9200494406701,22,33.667946016363636,-117.18211257272728
Niles,361.22915150766346,10,42.008667325,-87.653063821
East Farmingdale,361.11026231808927,15,40.73253053,-73.42943346
Lynchburg,360.6109544728296,35,36.852579174285715,-81.01858203971429
Mount Pleasant,360.4534486961529,21,35.20227337047619,-81.72164329095239
North Star,358.9841972970323,11,39.71377604,-75.74004681
Garden City,358.2413352948607,18,40.80562607388889,-93.02104224666667
Ann Arbor,356.87017853916467,20,42.260372618999995,-83.831264624
Tomball,355.9046074431571,18,30.064374473333334,-95.67635319222222
Norco,354.8597348852178,13,33.92490887,-117.5498602
Oceanside,353.3006615105058,33,35.01983750272727,-106.72290949696969
Arvin,352.7906082203289,14,35.10933401,-118.8196437
Marshfield,351.6704913337813,17,42.413728608235296,-73.00421253117646
Easton,351.103365433368,26,39.793386850000005,-75.62081355769232
New Haven,350.6340937662042,18,41.316828602777775,-72.90334542277778
New Castle,350.42894586411217,42,39.885436313095234,-78.94701677380952
Foothill Farms,350.1344185908373,12,38.68676978,-121.34885430000001
Tulare,348.8527901077128,23,36.17968733,-119.3717247
Ellenwood,347.920202200119,14,33.63721736,-84.26364332
Helena,347.49123996745755,14,46.51656873,-112.23045519999998
Kingsport,347.149094146665,10,36.525287961,-82.569697332
Chester,347.00602349335367,16,39.375474660625,-75.76379470375
Missouri City,346.1398520209616,24,29.563556762083333,-95.52503567666668
Forney,345.9053642975092,14,32.74078155,-96.452043
Sun City West,345.80684023229037,10,33.67818298,-112.35315620000002
Bridgewater,344.64000978690433,12,41.97317885,-70.97535565
Sebastian,344.10734739214126,19,27.791117239999995,-80.48700492
Manchester,344.0559049913752,23,42.466399942608696,-71.92664395391304
Nicholasville,343.5082729663874,18,37.87285869,-84.56523112
Granite City,343.4231498575911,15,38.72761109,-90.11548729
Salinas,342.38256623946506,26,36.691972244615386,-121.62466354615384
Ventura,341.5220081862512,34,34.247412015882354,-119.3111002764706
Florin,340.87130328624113,19,38.4888974,-121.3954942
College Station,340.3534183404595,25,30.582978542800003,-96.30108857680001
Wade Hampton,339.7422316185936,10,34.85578287,-82.29523939
Evanston,339.62815614432,12,42.03228798,-87.68371725000002
Grand Blanc Township,339.4986026274497,11,42.91827668,-83.62439005
Coppell,339.37141648080285,15,32.9640318,-96.98602349
Livonia,338.7605001454867,16,42.4011150025,-83.37346883
Providence,338.59319461647283,21,41.807401074285714,-71.43246713190476
Del Rio,338.31562227814,11,29.719350070000004,-100.88145209999999
Princeton,338.16438813290875,22,35.10050727181818,-77.63594208045454
Fuquay-Varina,337.43627901944274,13,35.54332319,-78.82722996999999
Irvine,337.0629313183859,22,33.701759023181815,-117.77160428181818
East Brunswick,337.018674710026,17,40.42931485,-74.41602343
Midland,336.7587326055664,22,32.57761238636363,-101.28023049636363
Chino Hills,335.2923317927484,23,33.95865834,-117.7306867
Painesville,335.13231086182657,21,41.70233776,-81.20991803
Norridge,334.81456594929307,9,41.96650783,-87.82473212
Trappe,334.7995022953562,17,40.18926006,-75.43599101
Trenton,334.4003119434823,16,40.3449015475,-75.29875853375
Greer,333.9909106915375,22,34.92854600636363,-82.23687887
Randolph,333.1012895301264,14,41.129830717857146,-73.82391835928571
Cambridge,332.73301148129013,8,42.37362182375,-71.12312736125
Pharr,332.7008781606232,22,26.14866515,-98.1904438
Bedford,332.3923783025625,13,33.31486874461539,-96.30955911000001
Fort Washington,332.35367963277827,9,38.75290885,-76.99112968
Round Rock,332.06687662269974,20,30.53109194,-97.6737547555
Portage,331.3570487048554,11,41.58887708,-87.17801412
Fort Wayne,331.3569782187061,30,41.13438221733333,-85.07777762133333
Mebane,330.3437875709615,16,36.13419353,-79.26431055
South Jordan,328.7445337680151,11,40.55858241,-111.94168719999999
Anderson,328.60645588299815,11,34.50500961,-82.60273048
Stratford,327.5828773201489,7,41.23005923,-73.12814502
Socastee,327.44735083729785,10,33.67248498,-79.02353429
Parkland,326.9151637357977,22,33.89317056681818,-95.59496065272728
Dothan,326.66476618056777,15,31.167053882,-85.39977268
Northbrook,326.5807264706592,13,42.12624281,-87.84414555
Baytown,326.4717499126732,20,29.7906261375,-94.97037643000002
Mission Viejo,326.4139579009253,11,33.60964003363636,-117.6497397
Cottonwood Heights,326.10415769475014,4,40.61482174,-111.6753778
Greenacres,325.7850440392089,26,26.616389580769233,-80.14457861615385
Sandy,324.8514670820256,24,40.566653859999995,-111.82366303333333
Palatine,324.6839681819133,18,42.11999523,-88.04823465
Kaysville,323.78441790786917,18,41.01660962,-111.9680811
Marrero,322.49248484634745,9,29.819898,-90.12935685
Myers Corner,322.24723817760184,9,41.59354544,-73.89100306
Oakville,321.7662818889637,23,38.45650383,-90.32192016
Shiloh,321.67420382094485,10,39.222874835000006,-83.35141675499999
Stonecrest,320.9934149430495,31,33.7024363,-84.12514053
West Springfield,320.6299943785666,25,41.186602274799995,-73.932193714
O'Fallon,320.12517344232265,23,38.81616871956522,-90.61764879782609
Wadsworth,319.9542743285369,13,41.05799244000001,-81.73832542
New Bedford,318.71631075518843,18,41.63666493,-70.93682715
Lake Forest,318.4795467798117,11,33.64532524,-117.68479159999998
Florissant,318.45099120566584,21,38.80017246,-90.29602489999999
Country Club,318.1803549315917,22,25.94123413,-80.31771291
Murray,318.15586666511837,12,40.65809335,-111.8846621
Kent,317.9597637895692,16,46.216390265625,-114.5791813925
Winter Springs,317.95945951264645,14,28.68669274,-81.27276347
Los Villareales,317.61480739278073,20,26.544004109999996,-98.75056331
Thousand Oaks,317.5015957284376,20,34.203997079000004,-118.88955853
Huntington,317.3520237934698,24,40.87338123,-85.49434336999998
St. Charles,317.1485518374775,10,41.92701214,-88.29932765
Tigard,316.702844326466,25,45.425111791999996,-122.789872848
Perris,315.6587269989432,27,33.8017078437037,-117.27294905185184
Frisco,315.6439894967773,33,33.15571373727273,-96.80744870303029
McMinnville,315.53038673629663,18,40.95383962777778,-106.58948571333333
Griffin,315.39145989070687,23,33.26879118956521,-84.27206711086957
Whittier,314.6455850237641,15,33.97670884666667,-118.02694980000001
Cartersville,314.45631556305005,26,34.193944498076924,-84.80328555230768
Hillsborough,314.43924799614894,24,36.39254999208333,-88.10419086083334
Taylor,314.4316881111362,26,36.405171460000005,-90.328588505
Norfolk,314.2193828529349,30,37.595277419,-79.09452640433332
Richmond Hill,313.0851899133618,11,31.864350129999995,-81.26101225
Amarillo,312.8755383984083,21,35.196695720952384,-101.85336462380953
Sparks,312.5891616319125,30,39.541071360000004,-119.70934988333333
Orem,311.3405647185597,23,40.296984404347825,-111.72452113043478
Provo,310.6104451867369,20,40.273824533,-111.67284674499999
Jasper,310.10126859303386,8,34.45640484,-84.43738725
Montgomery Village,310.00620040673573,19,39.172869137894736,-77.18114276052631
Red Bank,308.89429885195034,23,33.89184947,-81.24025634
Privateer,308.84003189111667,16,33.87307989,-80.44103669
Greenwood,308.68872511661937,16,39.59675830125,-86.1150016225
Dearborn,307.27677143607195,27,42.31665077333333,-83.20503322
Rocklin,306.9869941187578,20,38.809832512,-121.260304565
Bel Air South,306.8203104455932,19,39.53740434842105,-76.29677656315789
Charleston,306.5901753481954,27,33.26661665555556,-80.60340269148148
Chillicothe,305.928141777306,17,39.30912042,-82.96094085
La Porte,305.43670175150004,25,31.1164363112,-94.0498135296
Flint,304.8061033704754,14,43.02587073285714,-83.69966482857141
Federal Way,304.5967788341401,22,47.30750241454545,-122.33091388181819
Lubbock,304.24772876439437,14,33.496547892857144,-101.90800732857143
Southaven,304.174407520896,16,34.96606943,-89.99559162
Pikesville,304.1716297600354,16,39.3826918,-76.72555787
Normal,303.95150733696704,20,40.52463326,-88.95583286
Bolingbrook,303.8717982066949,23,41.690942899130434,-88.10558544347826
Greater Carrollwood,303.29931624858733,16,28.07937612,-82.52653091
Hope Mills,303.1479411947365,12,34.92622956,-78.91231726
Olympia,302.3270751069112,18,46.99823548,-122.91053623333333
Murrieta,301.9549426487905,34,33.5506482117647,-117.30175525294118
Ross Township,300.65036578343467,18,40.54988612,-80.04791625
West Covina,300.5360956427944,21,34.061441622857146,-117.90879029523809
Mission Bend,300.5259475913128,16,29.69309797,-95.64893474
Davie,300.47517834906245,18,26.076884200555554,-80.25902338111112
San Luis,299.61164176251884,15,32.520602720666666,-114.73187602
Red Oak,299.23020918662627,15,32.52296532,-96.81462315
Hillsborough Township,298.5311981871252,12,40.49814836,-74.67343688
Costa Mesa,298.3580038064466,26,33.654349745384614,-117.91766048461538
Metairie,298.25755222044074,15,29.986818836666664,-90.17190081333334
Centerville,298.0704902356088,22,38.94422355545454,-83.97545914545455
Coeur d'Alene,298.0139426519343,17,47.70830128470588,-116.77035136470587
Hamilton Township,296.65800710987133,16,40.211155596875,-74.709826979375
Lisle,296.0724675505449,13,41.791832,-88.08384741
Green Bay,294.8771034605293,24,44.510453469999995,-87.97348217375001
Richland,294.08824418923257,20,46.24499645,-119.28966420000002
Meadville,293.58241134303,7,41.631064849999994,-80.15759839
Burleson,293.4166504020731,19,32.52547927,-97.30697099
West Haven,292.4020122066386,30,41.23842104166667,-97.71103231466667
Westport,292.273568112458,15,41.13386477000001,-73.34958473
Camarillo,292.22946776808465,26,34.2188684476923,-119.03758794615383
Cicero,291.6837989803372,21,41.84081599,-87.75920657
Pompano Beach,291.5865131588168,27,26.25153241925926,-80.13639127074075
Worthington,291.2785667972196,14,40.09985216,-83.01576798
Interlaken,290.86222403891594,14,36.93911673,-121.7487423
Campton Hills,290.7039252428046,9,41.94796583,-88.39097881
Midlothian,289.87945732458246,13,33.24964461538462,-94.01879898692307
Rogers,288.92539664878046,11,36.31527974181818,-94.04975789272727
Powell,288.7497408042179,19,43.92417952578948,-86.2483028031579
Tucker,288.71417173959645,26,33.80866224115385,-84.17035188076923
Norwalk,287.9860602331767,25,36.221153398,-103.7859878832
Council Bluffs,287.93343406637257,18,41.22828200111111,-95.83816117888888
Bowie,287.6072311185903,11,38.98518629,-76.73932055
Dalton,287.53459558447844,22,34.778532425,-84.9424140209091
Warner Robins,287.21183482932946,9,32.616670632222224,-83.64665426777778
Huntington Park,286.8000879323376,18,33.9772463,-118.21729429999999
Fitchburg,286.78728459649744,15,42.958429192000004,-87.06498522266666
Collinsville,286.54000263682923,12,38.68466756,-89.97832661
Sanford,286.5004007890952,23,31.704840094347826,-80.37716024130435
Lebanon,286.3264562295346,30,38.940168278,-92.11450025233333
Ocean Springs,286.1203572114291,14,30.4045869,-88.76312097
Crown Point,285.89644933411984,13,41.40016743,-87.32387398
Egg Harbor Township,285.33483409960616,15,39.37908799,-74.6305431
Tyler,284.95009100202026,14,32.29218095,-95.31337512214284
Delano,284.18636014750035,16,35.77540666,-119.1752544
Hilo,284.00954200235503,11,19.71615696,-155.2352026
Dix Hills,283.9195691192602,11,40.81425815,-73.36097129
Carolina Forest,283.8978785697633,21,33.75837166,-78.90946089
Lynwood,283.701627499557,18,33.92358856,-118.20052919999999
Rockford,283.25087282274444,20,42.254925819,-89.0227678735
Port Arthur,280.6398160271437,10,29.91858701,-93.8973659
Mooresville,280.22850423744615,20,35.576828938,-80.822133158
Sioux Falls,279.844456730663,34,43.53603403323529,-96.70631347882352
Ellicott City,279.8038639168384,16,39.264840905,-76.84498472499999
Butte,279.75134959287624,4,46.01593046,-112.4963166
Pryor,279.66812245992566,18,45.60781709,-108.3747241
Lakeside,279.07367024659777,15,30.704727282,-88.8331245
Potomac,279.02823905297805,20,39.03335161,-77.22060176
San Rafael,278.87871877658426,11,37.996351648181815,-122.5191636181818
River Road,278.50737188395277,13,35.58578767,-77.01828736
North Rock Springs,277.3111485603095,10,41.41518642,-108.98154200000002
Grants Pass,277.256579033469,18,42.49314461333333,-123.35522198333335
Bridgeport,277.1856989056902,21,41.19966329428571,-73.20620218714286
Sandalfoot Cove,276.8246954766272,15,26.34912597,-80.21550448
Odessa,276.3240163214857,15,31.901135895999996,-102.35636438
Horn Lake,275.7113595468553,10,34.9522571,-90.05035714
North Bergen,275.6730803975184,25,40.79448533,-74.02298015
Boynton Beach,275.64132343911035,24,26.52897625916667,-80.07487148041666
Caldwell,274.95540814791104,27,43.68385032296296,-116.6967394148148
North Richland Hills,274.6531902830265,18,32.86857328,-97.21424343
York,274.46994701919635,23,38.238163318695655,-78.30245806695652
Southlake,274.05710222357203,14,32.95931409,-97.14815375
Plainview,274.02761762148623,9,36.36383960333333,-92.32843005666666
Moore,273.9829493339072,31,35.33615941,-97.47644049
Tewksbury,273.8230401175451,12,42.6118639,-71.227001
Stoughton,273.69629507098466,10,42.11917362,-71.10194316
San Marcos,273.3363999991234,31,31.56548961580645,-107.88601464032259
North Augusta,272.5828179834399,8,33.52516907,-81.94010218
Bartlett,272.5535303233154,15,37.035638930666664,-89.41149393799999
Egypt Lake-Leto,270.9548558484904,11,28.00615321,-82.50626887
Fair Oaks,270.91728034267777,10,38.65172829,-121.25316330000001
Carlsbad,270.5699231516392,27,32.92132841222222,-113.9694703888889
West Point,270.39959749235646,17,41.12011754,-112.0667411
Monterey Park,270.2548960656247,15,34.049177296,-118.12306998000001
Hacienda Heights,270.2167601773088,12,33.99860451,-117.9717119
Homestead,270.01474432109086,22,25.47158490681818,-80.39887004863637
Great Falls,269.6684287893631,21,47.599064907619045,-111.34295417619047
Bryan,269.5699382153874,18,30.666147101111115,-96.33943344166667
Garden Grove,267.8535263573447,31,33.781483288064514,-117.95300126451612
Highland,267.16329855652583,20,39.501194098499994,-118.02527136500001
Rancho Cordova,266.7836844418833,23,38.59145146521739,-121.29227664347827
Royse City,265.91136653009823,15,32.9517651,-96.31121868
Clinton Township,265.8964680915302,24,42.59601111166666,-82.92448665416667
Bell Gardens,265.7557814236025,21,33.96899587,-118.17117350000001
Oak Harbor,265.4876235794447,21,48.31908708,-122.6298664
Beechwood,264.6660871549343,12,42.84159606,-86.13497432000001
DeRidder,264.50491790903226,12,30.80444582,-93.25470273
Texarkana,264.23219058507226,26,33.43425858,-94.0011909276923
Schaumburg,264.1736849920968,14,42.01138924000001,-88.09519604
Manassas Park,263.6653790172022,14,38.74915677,-77.4298237
Pottstown,263.61182556327697,12,40.25907217,-75.6162343
Edison,263.49485315737195,20,40.524600837499996,-74.388359878
Kyle,262.9768342413947,18,30.002058359999996,-97.82892159
Thompsons,262.9587780328567,12,29.491757880000005,-95.70438885
Hampton Township,262.22242682779654,10,40.63933746,-79.94807812
Lyon Charter Township,260.7109269468328,11,42.44217381,-83.66358469
Lynn,260.6526561248896,10,42.47078224,-70.93983712
Dacula,260.4762597207976,10,33.97787772,-83.88243363
Summit Township,260.30659763329044,11,42.21718505,-84.40745803
Huntersville,260.1893452428028,18,35.4052798,-80.8685613
South Hill,260.04892360708277,24,44.58995248458333,-97.48395091958334
Sierra Vista,259.9788894451018,7,31.5717637,-110.1974554
Highlands Ranch,259.87558074874954,24,39.53996775541667,-104.9592053875
Janesville,258.92570873082855,9,42.65286858,-88.95388872
Owensboro,258.8160878013841,18,37.75406311888889,-87.13821433333334
Milton,258.63476958852925,17,37.446412945294114,-78.09070965352942
Tamiami,258.40937279432086,12,25.73446648,-80.40720237
Pennsauken Township,258.38003575474215,12,39.94974588,-75.0505466
Twin Falls,258.11335922736106,16,42.38403598,-114.5458871
North Fort Myers,258.0309159782903,14,26.725010375000004,-81.85691168928572
Aiken,257.8112445143457,18,33.46160314166667,-81.69375491833334
Central Islip,255.62253290143374,13,40.78321851,-73.19705948
Flowood,255.57953163045877,20,32.43646901,-89.95158055
Bayshore Gardens,254.98161813978388,11,27.43854333,-82.57938011
Palm Beach Gardens,254.84462089863928,16,26.859459858125,-80.16296335
Woodlake,254.0896559289491,23,37.4370824,-77.66489401
The Woodlands,254.00955442834623,11,30.16599777727273,-95.50384308363637
Centennial,253.4133697179114,21,39.603069915714286,-104.84198418095238
Prattville,253.28232682397547,7,32.51031124,-86.57345556
Fort Lee,253.15883722299196,13,40.85064058,-73.97108928
Argyle,253.0852883142446,10,33.11021267,-97.17097308
Warren,252.81251890840005,14,42.47226160571428,-83.03561806428571
Woodland,252.72667998817494,18,38.7165725,-121.78873420000001
Evans,252.6759137398188,22,38.20433374454546,-97.53904286636363
Ashland,252.03065697146138,21,41.60378616285714,-105.2733190557143
Kearny,251.9696530963632,22,40.75530906,-74.11838856
Arvada,251.48706372435686,10,39.833055644,-105.11534608
Fort Dodge,251.4452906643331,11,42.49697782,-94.19179307
Weddington,251.42745890831787,7,35.06132641,-80.69383755
Champaign,251.18340482770267,15,40.115774775999995,-88.26036406333334
New Braunfels,250.92111976216242,11,29.692677459999995,-98.07109058
Gettysburg,250.9009712350662,11,39.82957388,-77.22780661
Batesville,250.63886471660643,13,35.79965014,-91.66797515
Elizabethtown,250.16219990395032,17,38.14355394352941,-84.21433144352942
Friendswood,249.5605932017969,21,29.51595192,-95.19277618
Lower Burrell,249.16759118654232,8,40.56394592,-79.71069903
Valparaiso,249.16111741526066,17,41.46016108411765,-87.06705886117646
Kendall West,248.92266028793733,19,25.70928274842105,-80.46169550947369
State College,248.2470105500535,17,40.77362335,-77.83164852
Sun City,247.7748966136431,14,33.60704395,-112.2823528
Ogden,246.71757889164107,16,41.22541169875,-112.0085612125
Bloomsburg,245.69932559110802,18,41.01500134,-76.42169073
Hazel Dell,245.5885974129716,10,45.68088802,-122.6561173
Pine Hills,245.4218812138693,15,28.57959353,-81.4427697
Beckett Ridge,245.39616375872066,14,39.34264169,-84.41171717
Garden Acres,245.3403694985556,14,37.94497135,-121.1501578
New River,244.91130254241222,14,33.8298404,-112.11413660000001
Miami Lakes,244.29852231440535,22,25.900912878636362,-80.31374812545454
Norton,244.13093656241873,13,41.020257720000004,-81.62786218
Downey,243.354499144785,16,33.930148823749995,-118.136368925
Katy,243.11314863373696,17,29.76806057529412,-95.82313431941176
Ballwin,242.85749801418424,14,38.583043092857146,-90.55072129
Monroe Township,242.74515217158307,11,40.32602686,-74.42808368
Coral Gables,242.4762540593998,13,25.75338842,-80.27097249
Shelbyville,242.36130031470893,16,38.21644686,-85.20867098
Eau Claire,242.1590119759599,18,44.81830717,-91.51501881
Jollyville,242.0107988593967,9,30.45943303,-97.75105555
Lake Elsinore,241.63459486454005,18,33.64670253,-117.4064691
Watertown,241.36031049136565,15,44.01281501066667,-80.92899454533334
San Leandro,241.31880943228282,21,37.70655882238095,-122.13448702380951
Randallstown,241.2356396210111,13,39.37528272,-76.81152251
La Vergne,241.15383137098664,12,36.02694716,-86.55789587
Bristol,241.13919892575805,25,39.631139042,-76.60523245
Alamo,241.11028951764277,11,26.13845431,-98.11942520000001
Lawrenceville,240.93373201732317,19,33.97969783736842,-84.00266292842105
Mililani,240.86446692438233,8,21.46053213,-158.0128403
Manteca,240.86137079479636,15,37.78549329733333,-121.22412800666666
Gonzales,240.69122958177334,13,30.22566554,-90.92393616000001
Hollister,240.52821960130282,8,36.91513288,-121.3380515
Eloy,240.02630583428015,16,32.6621762,-111.5586298
Simi Valley,238.38165718928747,22,34.26920002,-118.77171550000001
Birmingham,238.38115552097258,20,33.619656324,-86.72869973649999
Montebello,238.27001962014742,26,37.03100440461539,-99.50100617461538
El Centro,238.21943980468012,16,32.77494831,-115.6037908
Ankeny,238.18575765566746,11,41.72381727727273,-93.58377406909091
Minot,237.91912384450382,7,48.13629631,-101.3235759
New Brighton,237.89533591419413,18,45.07343097,-93.19377797
Carson City,237.6083582324085,16,39.13112038,-119.6912402
Green,237.26264314617498,36,41.786561059166665,-96.62392549222221
Marion,237.08979537821685,26,38.76864367,-85.20427907807692
Feasterville-Trevose,237.01806561682542,13,40.15550484,-74.97826628
Springville,236.84297810969943,9,40.17330539,-111.4431456
Beachwood,236.3406876642948,10,41.46763134,-81.51260307
Candler-McAfee,235.59520604348106,17,33.73993846,-84.26405821
Flower Mound,235.45112776379557,26,33.03054466653846,-97.07137661769231
Alvin,235.29924250516945,15,29.37425342,-95.23878338
Long Neck,234.21332424376325,11,38.58108234,-75.27746057
Deerfield Beach,234.10869230037528,17,26.310436766470588,-80.12526050764706
Pittsfield,233.7345436437009,22,42.46029949,-73.28014459
Penns Park,232.69863609678077,9,40.26277655,-74.94897888
Brookline,232.21681550681623,13,42.32547898461539,-71.14204006692307
Parker,232.09756572797994,21,39.27927311380952,-103.65522381190476
Rome,231.88305376575025,20,41.875573007999996,-76.9318509015
Centreville,231.19082979207428,16,38.83810372125,-77.47039301812501
Paragould,230.81896334263882,23,36.07731253,-90.52071876
Doral,230.68714530280934,18,25.820982400000002,-80.391418045
Northfield,230.39183831414903,15,44.47010197,-93.17902271
Indio,230.31004794564788,29,33.70967930793103,-116.08053806206895
Williamsburg,230.1954078922136,26,37.24562969,-76.70140243
Danville,230.13851321537544,9,38.571611105555554,-84.00381349222222
Suwanee,230.07103656124787,13,34.06240903,-84.09123865
Ballston,229.6039311104891,8,43.00215097,-73.86718669
Casa Grande,229.41805534241266,19,32.92911657,-111.74578940000002
Mill Valley,229.40030820253708,12,37.88486733,-122.5532685
Malden,228.89301932793546,14,42.43068147,-71.05743045
Moses Lake,228.70545846799047,12,47.1521582,-119.29900019999998
Duncan,228.38624032776048,20,34.45690362,-97.91447138
Eastvale,228.35050840431092,17,33.91681371,-117.6180075
Greater Landover,228.01279258121806,19,38.91810665,-76.88073629
Pittsburgh,227.92927545639463,20,40.471412102,-79.965207703
Big Lake,227.76845846207425,10,45.38144312,-93.73960918
Warminster,226.90289250659544,11,40.21571108,-75.07346232
Highland Park,226.8347403628269,15,38.445181299999994,-91.401587218
Prior Lake,226.75757873881577,11,44.67965241,-93.40890747999998
Reiffton,226.5672336278008,6,40.3372065,-75.85853952
Canyon Lake,226.12441810968883,12,29.76442996,-98.18886320999998
Palo Alto,226.02665022862897,11,37.41940138727273,-122.12980761818181
Radcliff,225.96674436620424,9,37.8267295,-85.92449935
San Angelo,225.74426462378935,18,31.381664004999998,-100.4262177
Spokane Valley,225.73354567014465,13,47.65600629153846,-117.22859068461538
Palmetto Bay,225.37497665918806,10,25.606378010000004,-80.34232774
Wheaton-Glenmont,225.22012707038044,21,39.0728168,-77.05119389
St. Peters,224.94446010400898,16,38.78913086,-90.62670912
Mankato,224.8549614822217,10,44.12807311,-93.96750104
Edinburg,224.83993026545483,15,26.28183034,-98.18286914
Rosedale,223.64132926352457,16,39.33859996,-76.49539096
Tracy,222.91169772236668,18,37.696628813333334,-121.45975103333333
Pocatello,222.34148740595043,12,42.88866278999999,-112.38499080000001
Aldine,222.0079033321192,14,29.905642287857145,-95.35188381571427
Harlingen,221.93092323319865,19,26.251825952631577,-97.67763429421052
Farmington,221.84271670909328,27,39.132829808518515,-103.09006418592593
Fridley,221.72282678766115,9,45.09677461,-93.25466798
Annandale,221.3906579149975,20,38.83080687,-77.21438694
San Ramon,221.32177878261186,6,37.75955783,-121.9288122
Elkhart,221.22917219664495,16,41.684277014375,-85.95665627437499
Decatur,221.18058391956907,22,36.866159270454546,-87.51903531727272
North Tustin,220.94772262631233,12,33.75605496,-117.8138487
Kathleen,220.7666889375126,21,28.12737534,-82.02929153
Brockton,220.50374504601484,14,42.08074422428571,-71.02984665285713
DeSoto,220.4634447788436,11,32.59894861,-96.86406162000002
Davis,219.8289093509188,23,38.55393781826086,-121.76216283478261
Thomasville,219.75957307414726,16,34.903285616874996,-80.839916075625
Lake Shore,219.73483968350837,11,39.123795,-76.49397982
Castle Pines,219.57642325888656,15,39.45164443,-104.8553762
Black Wolf,219.54691177474803,9,43.94724866,-88.50120489
Valdosta,219.48954433758257,18,30.85530388666667,-83.34163229666666
Grand Island,219.40887637178383,13,40.949525680769234,-98.3416171623077
Kingsville,218.5687301118421,24,27.45021764,-97.85782979
Gardena,218.39570865135954,16,33.89575294625,-118.30607799375001
Belle Isle,218.05050096076934,8,28.46198873,-81.38447964
Russellville,217.9551250813079,9,35.31264083,-93.06667989
Hobart,217.85027072086157,10,42.395783865,-90.801761236
New Caney,217.53603636672824,13,30.1582311,-95.19189806
Westerville,217.24664842339487,13,40.131219590769234,-82.88647809230768
Yorba Linda,217.08513810285032,16,33.89823459,-117.7987491
Watertown Township,216.7669352847854,13,42.78395117000001,-84.58478796
Forestville,216.39949008574544,13,38.85415241,-76.88364697
Weehawken,216.14200035482645,2,40.76349086,-74.02343491
Hillside,215.78944325969908,7,40.69598913,-74.22850383
Five Corners,215.65740698972306,21,45.68843132,-122.57777469999999
Carmel Hamlet,215.60723080575409,7,41.44979158,-73.712636
Streamwood,215.353827762075,20,42.02777137,-88.17750202
Wooster,215.3448073626564,14,40.80543493,-81.98001712
Fishers,215.27861742275954,21,39.96274298142857,-85.96653960714286
Wheatfield,215.23135725244413,14,43.07639041428571,-78.85385313142856
Cabot,215.11245863672553,12,34.95970653,-92.05780689
Sunny Isles Beach,214.54150934662195,16,25.93824126,-80.13309833
Dayton,214.3361519882215,17,36.31772642470588,-88.04074565529412
Suitland-Silver Hill,214.3189777471682,11,38.83734007,-76.91881809
Ocean Township,213.97515244595434,13,40.24760607,-74.05375892
Trussville,213.7856249473311,10,33.64934318,-86.5644249
Hoboken,213.61417479796927,4,40.7439458,-74.02935235
Harvey,213.38462370330373,8,40.1442924375,-87.954245935
Seguin,213.37851657809628,23,29.5329812,-97.93797375
Country Club Estates,212.83659791007045,3,31.31194239,-81.52577621
Hobbs,212.81771306606214,17,32.66364669,-103.4504079
Tifton,212.42913131991958,16,31.44217634,-83.44296974
Vineyards,212.22714023183056,11,26.266737110000005,-81.7151331
Matthews,212.04164801489307,11,35.12028718,-80.71045057
Bremerton,211.6121778419792,9,47.56377891,-122.7588626
Ruston,211.24126111106307,13,32.49615465,-92.64380325
Bull Run,210.77791391808108,21,38.79360838,-77.52882132
Altamonte Springs,210.36341854092734,4,28.66235431,-81.41170959
Tustin,210.14137022883997,24,33.73633664,-117.81952210000001
LaGrange,210.12695284007467,9,33.029448234444445,-85.04746404555556
Paradise,209.55934775114386,11,39.06434726818182,-120.44027771818182
Batavia,209.47620041605376,22,40.8446203,-86.81116356909091
La Cienega,209.317241214367,16,35.6211373,-106.1142648
Glen Burnie,209.25775081993044,26,39.16371796,-76.606674895
Clemmons,209.24639743258624,18,36.00429402,-80.37592779
Los Lunas,209.15391686823304,28,34.75372662,-106.80388660000001
Bellflower,208.8265503552119,16,33.88799003,-118.1271549
Dubuque,208.7546546350168,13,42.55110128,-90.69384670999999
Kernersville,208.7231519420814,12,36.11733606,-80.07845641
Bear,208.0421564599276,13,39.585207110000006,-75.69936318
Norwich,206.06256099699294,8,41.54828721,-72.08377809
Hot Springs,205.89372915837507,16,34.472728790625,-93.054978656875
Brookhaven,205.52762943370627,6,31.56741656,-90.47663734999999
Fallbrook,205.487971475586,12,33.39088733,-117.24010779999999
McAlester,205.4792156311322,7,34.93425602,-95.76260141
Fredericksburg,204.6513863686559,12,35.63010550333333,-84.61230741666667
Fountain,204.52264822965088,15,38.64782505,-104.6713836
West Samoset,204.40978199481052,12,27.443465740000004,-82.50901616
Muscatine,204.38990169457676,7,41.44853376,-91.04640746
New Baltimore,204.03345005385765,6,42.67266733,-82.77521468
Placentia,204.00581395847027,15,33.88058054,-117.8549495
Kuna,203.81220884293077,17,43.42621885,-116.286279
Hazleton,203.43389202910794,5,40.94949002,-75.95582079
Millington,203.36807923797338,5,35.34221773,-89.96428408
Framingham,203.1363322684172,15,42.300524804666665,-71.43565535066666
Quakertown,203.1015860086144,13,40.45506368,-75.33351143
Martinsburg,202.8698584462257,11,39.48573972,-77.89529082
Vallejo,202.36070405987556,13,38.12529518923077,-122.21086023076924
Alameda,202.1803827964469,18,37.77394944,-122.27812709999999
Redding,201.9663094991392,9,40.52990143,-122.31755519999999
North Port,201.87353031126523,22,27.089699784999997,-82.13678879136363
Noblesville,201.8148755983676,12,40.06321782,-85.97458936666668
High Point,201.61424948854312,14,35.978506491428575,-80.01015172357143
Gilroy,201.59326517474616,12,37.01000017,-121.5413436
Lemoore,201.14732964741881,11,36.29112566,-119.8393688
Smyrna,201.13391901092598,27,35.695022485555555,-85.75438523296297
Florence-Graham,201.02834509397331,15,33.97353024,-118.24895
Lucedale,200.62393358727783,13,30.88202022,-88.59295324000001
Austintown,200.5914687804753,13,41.10123235,-80.76310771
Clayton,200.58087141862725,24,35.615419952083336,-78.46907091416666
Hopewell,200.56821648526451,5,37.28027108,-77.21401085
Harris Hill,200.14564415925992,22,42.98000098,-78.72294824
Chowchilla,200.0960000604391,1,37.09531657,-120.2665584
Webster Groves,199.9064921872309,5,38.58870402,-90.35112764
Neptune Township,199.78200176823927,16,40.21624731,-74.07898963
Ashtabula,199.42455055340423,10,41.85582391,-80.7911247
Magna,199.2625144019762,13,40.72442894,-112.1071287
El Dorado,199.21728907438487,8,33.21005903,-92.61308105
East Patchogue,199.07165545582387,12,40.76363969,-72.989764
Iowa Colony,198.7718010546065,4,29.39027742,-95.45872276
Lewiston,198.55845462056195,19,44.6479336868421,-82.46413909052632
New Smyrna Beach,198.18577860097835,8,29.00790125,-81.05316139
Terrace Heights,198.16508021463926,10,46.6566641,-120.4177297
Springboro,197.9073496612302,5,39.55005013,-84.2220953
Harmony,197.8169127388801,10,40.70678019,-75.15153623
Robinson,197.5476164480442,12,31.46591409,-97.09239247
Summerlin South,197.4871026508278,24,36.10286252,-115.3782053
Mount Vernon,197.36121397296859,24,40.5090591425,-81.04781348458333
Evansville,197.2538178448301,14,37.99015605142857,-87.54206856571429
Mount Airy,197.18099675219244,15,36.49047724,-80.60438658
Ames,196.92711659938325,10,42.038320811,-93.62310268899999
Bridgewater Township,196.91235333905468,10,40.59338603,-74.62179232
Bethesda,196.84761454254934,9,38.99918310888889,-77.13910097666667
Paine Field-Lake Stickney,196.81457692012273,11,47.90130783,-122.2610006
Wahiawa,196.46432133441849,14,21.52558946,-157.9986892
Port Saint John,196.08595535004895,13,28.4650434,-80.80924982
Richardson,195.06216929624824,21,32.96962444142857,-96.72178853428571
Cerritos,195.03943146062323,6,33.86771913,-118.0690518
Mineral Springs,195.00836543994524,5,34.91398009,-80.72691959
Dahlonega,194.89864860902395,15,34.5649618,-84.02031851
Hollins,194.74390960236036,10,37.34538124,-79.95363963
Livermore,194.5424234675782,20,37.66624082,-121.69792748
Urbana,194.356719260022,15,40.122807429333335,-88.15361169866667
Mantua,193.939880290512,8,38.85949057,-77.26036012
Sunnyslope,193.85349534333162,12,47.38095267,-120.3711138
Milford,193.71214233349235,17,41.12046862,-75.05116808705883
McDonough,193.63121344341215,28,33.46503194071429,-84.10706964142857
Southington,193.46553814649246,10,41.61230439,-72.87433864
Covington,192.795773384826,13,34.183432168461536,-84.41470429538461
Manitowoc,192.73727191475567,9,44.09387353,-87.72670863
Yuba City,192.283850382607,10,39.055807586,-121.66916059999998
Forest Hills,191.82011395254375,15,42.92708782,-85.53624109
Ridgecrest,191.35141534141815,6,35.58540852,-117.6904156
Moorpark,191.1382229429155,10,34.31168047,-118.8671521
Xenia,191.07386285085173,9,39.66914377,-83.91595725
Waukesha,191.04635295886263,21,43.00603472095238,-88.27155509714287
Marysville,190.79504937228114,11,42.38630109363636,-93.93807483090909
Eagle,190.79234708574347,11,43.77277193,-116.3916318
Lutherville-Timonium,190.6795469086844,15,39.43898622,-76.64462649
Compton,190.60023955758135,19,33.88180318578947,-118.22652159473685
Coral Springs,190.5849965380403,13,26.26612004153846,-80.26136832846154
Brownwood,190.3570888514391,10,31.73417804,-99.0394893
The Colony,189.88603306186488,14,33.07577508,-96.90891386
Ceres,189.87629094522237,12,37.55452099,-120.9542419
Pinehurst,189.78670334544117,12,30.21202542,-95.64509712
Kendale Lakes,189.60488384616804,11,25.70038456,-80.40485616
South Bend,189.4508028646598,20,41.60077688,-86.28267575
Shoreline,189.3969687823851,15,47.750662649999995,-122.3148097
Wilmington Island,189.3644888022978,9,32.00704537,-80.97176722
Attleboro,189.2347672750767,12,41.93106432,-71.29502307
Lenexa,189.172075733186,10,38.95630988,-94.743325
Mount Laurel Township,188.69220166706629,12,39.94775884,-74.90487077
Rochester Hills,188.6300784801693,11,42.659189802727276,-83.13960089545455
Cathedral City,188.4750764300765,9,33.82055116,-116.4622845
Summerville,187.398747762567,19,33.07108383,-80.21238337
West Falls Church,187.19521359290138,18,38.86421243,-77.19384447
Alhambra,186.86035428968432,8,34.08278178,-118.1370352
Woodbury,185.88002783291472,12,44.91981583,-92.94385824
Olive Branch,185.60480899171304,14,34.93613593,-89.82300201
Gallatin,185.39979557810102,8,36.39897562,-86.45509418
Big Spring,185.37962360543233,6,32.22683866,-101.47942489999998
Ken Caryl,185.1584367510484,6,39.51316857,-105.1661056
Hopkinsville,184.76826627950737,8,36.89214822,-87.45060585
Parkersburg,184.57064467486242,7,39.23899615,-81.57593359
Wayne,184.37014574805184,16,40.8930858575,-74.31718289375
Santa Fe Springs,184.1575411734151,14,33.93226184,-118.0625165
Reston,183.9543267188464,9,38.93368698,-77.35085723
McLean,183.91886711476894,11,38.93813804,-77.16414386
Levittown,183.89585408785803,9,40.72540424,-73.51663395
Ukiah,183.7713412688009,7,39.14669516,-123.24893340000001
Hicksville,183.74088034401467,8,40.76225416,-73.52389333
Clearwater,183.70216665844342,13,27.96379457923077,-82.76982501307693
Napa,183.54282449604142,19,38.48583544052631,-122.27689747894738
Claiborne,183.43109621834185,12,32.56749475,-92.18377053
Tualatin,183.21169225842004,4,45.36717343,-122.7647659
Plant City,183.2008237161525,11,28.0173444,-82.12449319
Iona,183.14837731689613,16,26.49358395,-81.92795347
Sands Point,182.94320905528238,4,40.84034175,-73.69266057
Stamford,182.9040112412141,11,41.05499243,-73.54334879
Carnot-Moon,182.84992845726396,10,40.50107736,-80.20237313
Cantonment,182.6433610352716,14,30.6131086,-87.32579098
Ponchatoula,181.22105777937364,17,30.373768019999996,-90.37982001
Lawnton,181.07374952416438,10,40.26961933,-76.7825569
Carson,180.6133776214271,16,33.82747226625,-118.23316300625
Midvale,180.55235266356144,14,40.613988389999996,-111.8918713
South Plainfield,180.44136055498413,10,40.57466598,-74.41509539
Saint Augustine Shores,180.43051137353595,10,29.75554477,-81.30176108
Antioch,179.68802302517182,24,39.09877334958333,-113.3674231225
Ladson,179.39370783590238,10,32.98689268,-80.11203478
Rockwall,179.26429548177688,13,32.885217266153845,-96.43535098999999
Wantagh,179.18504379275427,13,40.65483586,-73.5098883
Buffalo Grove,178.67291478353047,10,42.16697623,-87.96094504
Acworth,178.3304954255646,8,34.04700494,-84.71796465
Zeeland charter Township,177.98107030916802,7,42.84564346,-85.98749246
Orangetree,177.97947135190708,11,26.32061556,-81.57964334
Nānākuli,177.82044038655772,14,21.45630465,-158.16493109999996
Chackbay,177.20497948725847,8,29.8225261,-90.77273874
Lennox,177.1426439883044,8,33.9376725,-118.3584613
Gahanna,176.9420021566236,13,40.03637726,-82.8706045
Waukegan,176.93043601546228,24,42.371030527500004,-87.85860811875
Waxahachie,176.78784147525283,9,32.3620088,-96.79554606
London,176.7807368233698,7,39.096387590000006,-83.62530526
Spartanburg,175.94430123672288,8,34.93502075,-82.01429699
Aliso Viejo,175.65822118991966,13,33.57448958,-117.7303623
Pflugerville,175.6403609682615,13,30.44219285,-97.59518896
Edmonds,175.37778515775088,13,47.83869889,-122.3321514
Waco,175.30942135865976,15,31.59102470266667,-97.17154758466667
Timberwood Park,174.6866400160516,17,29.69370345,-98.50516109
Morgantown,174.2669961414305,10,39.65398967,-79.9479284
Carney,173.48846398259082,10,39.39474587,-76.53257891
Chantilly,173.32062657676323,17,38.88877611235294,-77.41517567058823
Wekiwa Springs,173.13991813367417,12,28.716389159999995,-81.41249851
Naval Air Station Key West,172.5769223716651,8,24.57280698,-81.88239919
Palm Desert,172.32648432588186,10,33.722933067999996,-116.37660970000002
Poinciana,172.2083360527094,19,28.16250464894737,-81.46881145052632
Rio Rancho,172.17639961167433,19,35.355185201052635,-106.79052724210526
Tupelo,171.93240402852854,11,34.22378045,-88.77687939
Allen,171.38124614689588,13,33.11631193,-96.69562616
Glendora,171.2997572656622,17,34.14107478176471,-117.84816229411766
Derry,171.08429390450783,5,42.88898412,-71.28030477
Montrose,171.0180310060746,15,37.72408858133333,-85.43515804733333
La Quinta,170.9697771319218,19,33.64779684,-116.27951860000002
Chapel Hill,170.8943326168287,12,35.89692746833333,-79.07382320916666
Fleming Island,170.85310446399154,6,30.09833027,-81.71256828
Natchitoches,170.83677997052416,4,31.71484909,-93.08706664
Blackfoot,170.51021311885037,10,43.34925563,-112.53505300000002
Jacksonville Beach,169.878189136799,10,30.278984579999996,-81.4102842
West Lake Stevens,169.2753922071926,13,48.03120646000001,-122.0755651
Castro Valley,169.12161602445704,8,37.71536547,-122.0820979
North Miami,168.68785049706486,9,25.891171879999998,-80.19705376222223
Cañon City,168.48989850745318,10,38.55018931,-105.429114
Lake Worth Corridor,168.45447154592625,10,26.61977374,-80.09026608
Mountain View,167.97900764890616,13,37.40894831153847,-122.07428099230768
Potomac Falls,167.93674060932779,13,39.05065232,-77.38887583
West Linn,167.9042475021163,8,45.35200175,-122.6688288
Royal Palm Beach,167.6928546649553,4,26.7156385,-80.20431411
Selma,167.53025182802085,12,36.53499187,-119.6458146
Round Lake,167.31864824905367,10,42.35173725,-88.10913267
Bozeman,167.19956227033313,22,45.76432602,-110.90389449999999
Bryn Athyn,166.9699729791002,3,40.13266501,-75.06247216
Eagle Mountain,166.93547726849445,12,40.32876801,-111.9971081
Prunedale,166.58290609459095,7,36.77148256,-121.6636867
Pacifica,166.20711383698855,10,37.60365758,-122.4761047
Gresham,166.20148141970057,11,45.49800608909091,-122.41587117272728
Central Point,166.17784701311706,15,42.40315906,-122.9579883
Greenbelt,166.04589084256372,9,39.00193433,-76.88296838
Royal Oak,165.89967544614237,7,42.503443385714284,-83.1504251
Hudson,165.77500447329035,13,42.74495200923077,-82.59136932923077
Suffolk,165.68319961096807,11,36.743030567272726,-76.5597052209091
Staunton,165.47870938849064,8,38.13122358,-79.08869896
Maryland Heights,165.24927835816214,12,38.69624806,-90.46358750999998
University Park,164.7767712340727,12,25.73910093666667,-80.35916178500001
Abilene,164.5693042407075,20,32.416001994,-99.8561904705
Jefferson City,164.39973164763697,9,38.5199582,-92.19219859333333
Bellair-Meadowbrook Terrace,164.0484362649234,15,30.16807196,-81.74036297
Ridgewood,163.96387153394937,9,40.785324172222225,-112.99512938666666
Rancho San Diego,163.67924995337944,17,32.78014448,-116.877291
San Bruno,163.6694576764936,12,37.62484141,-122.43190729999999
Orland Park,163.56122795931591,15,41.60803156133333,-87.874272848
Milledgeville,163.50537679543316,11,33.06542829,-83.2304584
Holland,162.82797774373782,6,42.73936509,-86.09013008
Houma,162.78159557221917,18,29.535410094444444,-90.79652276666667
Lynnwood,162.54106350681678,11,47.83129736181818,-122.28518846363636
Orange,162.27358277080822,19,33.40989240052632,-115.28865632210527
Silver Spring,162.2285009185286,12,39.01180976,-77.02261444
Dry Run,161.7921958760945,9,39.1206422,-84.32727942
North Attleborough,161.58728839304263,8,41.96962013,-71.33683481
Security-Widefield,161.57845968845922,14,38.75020492,-104.7265291
Simpsonville,161.06370972217306,20,34.68826345,-82.29147722
Shelby,160.93496765985853,11,35.26294634727273,-81.58989202090909
Tarpon Springs,160.62272929050155,12,28.15323678,-82.76867486
Pembroke Pines,160.4703109196838,17,26.023061804117646,-80.28852381529411
Petaluma,159.96037666668437,11,38.24033952090909,-122.67336826363636
North Creek,159.94976752230855,17,47.84185611,-122.19869329999999
Ridgemont,159.84743670842312,11,43.223563532727276,-77.68894922
Fairhope,159.68124105936752,7,30.48318052,-87.86514395000002
Owings Mills,159.6283385693748,11,39.4266674,-76.78081246
Skokie,159.50484110394177,12,42.03532816999999,-87.73470638333333
Redondo Beach,159.3051654712392,10,33.869113726,-118.37190364
Norcross,159.06587155244512,6,33.94003103,-84.20627567
Starkville,159.0622340726551,13,33.43537558,-88.82341635000002
Murrells Inlet,158.98929368296209,21,33.56930674,-79.0542359
Cedar Park,158.9508245278802,11,30.50569948,-97.820055
Edgewood,158.54611987531536,13,44.81340431846154,-108.11946723692307
Lithia Springs,158.391970593887,6,33.76379731,-84.63833007
Tulsa,158.08483246209457,25,36.047739487200005,-95.9258191304
North Royalton,157.71600004658103,6,41.31388849,-81.74512734
Garner,157.66456575207377,13,35.65091358,-78.58228471
Gold Canyon,157.59936645034193,11,33.33747754,-111.3631414
Adelphi,157.56931973508844,9,38.99933334,-76.96860534
Oshkosh,157.3759406802351,12,44.04642524,-88.47935767
Ewa Beach,157.37365396759296,12,21.33679395,-158.018539
Spanish Fork,157.18358093658523,9,40.06078729,-111.6375344
Calhoun,156.65005893047768,14,34.49505858,-84.94960165
Stafford Township,156.50443422560397,9,39.70750439,-74.26526825
Holladay,156.35795069150933,12,40.6629019225,-111.83460213333335
North Bethesda,156.253017143645,7,39.05168183,-77.12499001
Grant,155.69285316823402,10,45.07150121,-92.83898198
Goshen,155.5654959389662,13,41.57108855384615,-85.85500030923077
Branford,155.3907554240136,13,41.28069161,-72.79743237
Prairieville,155.1796927772709,6,30.306239450000003,-90.94440091
Yucaipa,155.04372128876568,11,34.04345985,-117.0019517
Braintree,155.0369061000796,7,42.205693970000006,-71.00732923
Porter,155.02821282482532,14,30.11065476,-95.26716073
Paramus,154.86795044055296,9,40.94558989,-74.071199
Winder,154.85857543804335,14,33.99620032,-83.69962144
Port Salerno,154.82789519617188,15,27.112058979999997,-80.23267744
Winslow Township,154.75486618523774,15,39.73735236,-74.9755645
Defiance,153.79485840511262,2,41.30349582,-84.35676319
Warwick,153.67091586212567,7,41.700763702857145,-71.41149610285716
Palm Bay,153.05550180685282,14,27.94965653857143,-80.66869220142857
Hamden,152.97741250340823,9,41.37325275,-72.94132641
Southampton,152.7671161199062,9,40.18756126,-75.0057361
Liberty,152.6684411704551,14,39.25894315,-94.38613694
Draper,152.22966647948107,14,40.495784949999994,-111.8652239
Durant,152.10577331179795,5,34.02500919,-96.37029798
Enid,152.10372302782378,7,36.44237504714285,-97.83860259571429
Holyoke,151.93565168626358,17,42.21244634,-72.64130543
West New York,151.90051813384687,11,40.78678516,-74.00862023
Baldwin,151.75157639622358,9,40.417780874444446,-78.56054375444444
Palm Coast,151.61806958599902,14,29.554015554285712,-81.22872954285715
Camas,151.60600066930056,2,45.65457393,-122.3653767
Harrison Township,151.48546659556433,8,42.5875784,-82.81779937
Petersburg,151.20036182351066,16,37.21238103,-77.48099611
Woodridge,150.91331680284478,15,41.73697001,-88.04058258
Waggaman,150.90349363656537,6,29.88451576,-90.21181145999999
West Odessa,150.8792535918839,10,31.8241202,-102.48519282
Queensbury,150.8553149462267,6,43.35313971,-73.68267264
North Naples,150.82023717956187,10,26.278652152999996,-81.780082396
Romeoville,150.49912427777795,5,41.63312257,-88.09707957
Boca Del Mar,150.27411076560975,11,26.34702432,-80.15921273
Chelsea,150.1207275978953,5,42.39576523,-71.03282693
Germantown,149.7391888874386,9,38.748835443333334,-78.62899489222224
Yorkville,149.58573387191032,13,41.6085208,-88.43181397
Chaska,149.35403910757105,16,44.8076875,-93.63699061
Gates-North Gates,149.26183691717858,6,43.17166317000001,-77.6987115
Brooklyn Park,149.1304442614163,15,41.976352256000006,-84.418874184
Freehold Township,148.94920122911387,10,40.22630003,-74.28216092
El Monte,148.94103161596527,9,34.07585825777778,-118.02879507777779
Southfield,148.84570673828912,15,42.49737629,-83.23068062
Hammond,148.58010326081734,13,30.498149146153843,-90.47652010846153
Blythe,148.51793317441522,8,33.74391803,-114.6677549
Kissimmee,148.00835814286887,13,28.28808880384615,-81.38275466153846
North Laurel,147.92402149513003,9,39.13643752,-76.86584155
Shrewsbury,147.83916405325556,7,42.28379563,-71.71452316
Coopertown,147.79022611106814,12,36.53608726,-86.86063349
Fair Lawn,147.76302308645796,8,40.93574135,-74.11772811
Chehalis,147.3962222988538,4,46.64793159,-123.0475877
Hutto,147.2716441363164,14,30.55835545,-97.54640238
McHenry,147.02357971451352,10,42.33100297,-88.29405526
Boone,147.01490660104503,5,36.21906969,-81.64731892
Shelby Township,146.98071247315437,14,42.67076982642857,-83.04258948071428
New Kingstown,146.92522453121435,8,40.24867088,-77.02620827
Homer Glen,146.3869944145704,11,41.60281913,-87.95924272
Mason,146.294700325431,10,39.353711,-84.31248876
Spring,146.28043504014195,5,30.061433420000004,-95.38470124
Elmwood Park,146.179257341357,8,41.92170029,-87.8084732
Cutler Bay,146.15871631902343,22,25.57156937,-80.33665792
Harrison,146.11992067391571,7,36.20990281,-93.09604656
Lincolnton,146.030020563415,11,35.48588284,-81.25407336
Hollywood,146.0232331798677,3,26.021593253333336,-80.17551637000001
Downingtown,145.92318516607324,11,40.02430055,-75.7215196
Pearl City,145.66796907151002,5,21.43492889,-157.9461762
Mercedes,145.64452653230157,12,26.1827675,-97.90871599
Worcester,145.63599176796802,12,42.26453299666667,-71.79821019
Dunedin,145.40291081524182,8,28.03760144,-82.78642609
Passaic,145.3347796088558,6,40.85758058,-74.1280292
Wausau,145.29166011959154,13,44.994553616153844,-89.62159005461538
Murrayville,144.9734113092064,21,34.30276266,-77.78873077
Waldorf,144.9472522329045,3,38.61795972,-76.85616642
Ham Lake,144.87143175953267,11,45.25565436,-93.26320766000002
DeLand,144.79189517644977,13,29.046957342307692,-81.27123688846154
Clermont,144.36868962733325,9,28.525665039999996,-81.75641924
Donna,144.2812102474096,8,26.15952233,-98.05480747
Mechanicsville,144.1554822282738,12,37.880999843333335,-77.07390950666667
Mentor,144.1451406295405,8,41.67863078,-81.32790887
Stevens Point,143.92133050091184,13,44.52099294,-89.63981508999998
Panthersville,143.88368891135835,7,33.69198401,-84.24835967
Pepper Pike,143.7832712381301,13,41.50012273,-81.46860891
Maryville,142.8811498457273,7,35.72207199857143,-84.00336508999999
Mint Hill,142.87588149222012,16,35.1898167,-80.65131063
Forest Grove,142.6691399674441,8,45.59080978,-123.1799825
Lake Havasu City,142.48352923914075,7,34.42686691,-114.1278094
Grand Forks,142.45032827474205,10,47.86691685,-97.14573981
Torrington,142.3918577159502,8,41.83733796,-73.12919907
Hanover,141.7002018384636,11,39.79209035,-76.97491896
Pueblo West,141.65661418823447,5,38.37643899,-104.78988139999998
West Allis,141.50031273496978,12,43.02075542,-88.01544061
Raymore,140.61387210826518,12,38.79942653,-94.44742077
Lealman,140.48669452899446,8,27.81687186,-82.73181473
Goldsboro,140.4241652243047,10,35.370434726,-78.0071775
Littleton,139.9060313306227,10,39.59351563,-105.00839479999999
Orangeburg,139.47827105662122,12,33.47770095,-80.851103
Lodi,139.30304609825737,11,38.13467649636364,-121.27845371818181
Utica,139.2228118085059,14,43.14220256,-75.15927563
Meadow Woods,139.1227511552772,10,28.38883467,-81.34920902
Endwell,138.73073486299154,8,42.13244992,-76.08281255
Asheboro,138.5972033473809,8,35.6372187,-79.84964868
Weston,138.37300001224503,4,26.11047264,-80.37341661
La Homa,138.08406487533597,6,26.30965713,-98.37166628
Plainfield charter Township,138.07238019859895,5,43.02235603,-85.59299202
Catalina,137.96525813075618,8,32.59905447,-110.9661657
Brambleton,137.8651214922987,10,38.99655137,-77.52907766
Johnson City,137.782875672664,14,36.312551005,-82.35093483
West Lafayette,136.6659900350684,15,40.50019872,-86.97783014
Pike Creek,136.48121040425147,11,39.73679177,-75.66522612
Homestead Meadows North,136.3521297034555,10,31.81178345,-105.9756527
Phoenixville,136.33070060629194,13,40.12744195999999,-75.52938317
Perkasie,136.16107516364,6,40.39189906,-75.23446209
Statesboro,136.12046060570574,9,32.39662808,-81.82662931
Bradenton,136.05613009823273,17,27.488386778235295,-82.5776612064706
Washington Township,135.99462585855983,11,39.75743983,-75.11910127
Farmers Branch,135.91916448652327,13,32.92400188,-96.88943593
South Miami Heights,135.88779900108767,8,25.59736673,-80.40664284
Hesperia,135.84491875330417,17,34.35722735,-117.3107738
Asheville,135.77229609454025,11,35.548887866363636,-82.57955299454545
Temple City,135.69096171761848,7,34.10153424,-118.0555359
Alabaster,135.42871886887764,4,33.21929346,-86.7948295
Wildomar,134.68266412083204,11,33.62108805,-117.26391639999999
Atlantic City,134.67813594583683,13,39.37123417,-74.45061901
Toms River,134.64588404593823,12,39.988697935,-74.16965786749999
Granbury,134.54045797727397,11,32.41494104,-97.80480583000002
Lake Ridge,134.40930949898967,10,38.68477637,-77.32318894
Massapequa,134.2478606544131,3,40.6663515,-73.45858638
Roselle,133.96976033968642,10,41.97669832,-88.09620096
Tamarac,133.93247082997803,13,26.22022465,-80.37805453
Irondequoit,133.54464371627498,12,43.17750992,-77.55288086
Lewisville,133.44108412744816,9,33.02208303,-96.99505699
Laguna Hills,133.42589366468198,12,33.59168265,-117.6984855
Summerfield,132.75550915350482,8,28.99610743,-82.04867679
Sherman,132.49215555569185,8,33.60540334,-96.54626651
Port Orange,132.28889892287995,8,29.10712982,-80.97490255
Taylor Creek,132.11966765103762,5,27.126289910000004,-80.8825496
Bluffdale,132.01672937869648,10,40.49056621,-111.9497102
Woodland Park,131.95693777552077,9,40.88380941,-74.20665713
Cupertino,131.79601470177028,12,37.30402565,-122.07969480000001
Lufkin,131.75353240983426,8,31.339548125,-94.80208262625
Monroe Charter Township,131.7000654322958,10,41.90978776,-83.47343564
Leander,131.69295196761882,9,30.557042649999996,-97.91328977
DeKalb,131.67201686520238,12,41.90160757,-88.75468291
Meriden,131.61589730398433,10,41.53310457,-72.77321286
Briar,131.37983559976703,7,32.89959665,-97.56485782
Cedar Hill,131.18816083424647,10,32.58490848,-96.97181478
Newnan,131.17880764657548,11,33.393839390909086,-84.83209237272727
Nutley,131.1541395353566,12,40.8193794,-74.15731366
Hendersonville,131.11823288091418,7,36.204755045714286,-86.00220183
San Juan,130.76420136641838,19,26.18604925,-98.1517823
Grosse Pointe Woods,130.64496083373848,11,42.42569548,-82.89381684
Atascadero,130.5529322380233,11,35.46030564,-120.68872230000001
Guilford,130.4935418645474,10,39.92725731,-77.67734022
New Bern,130.43734798271572,10,35.10663609,-77.052647855
Hurricane,130.1577594853066,10,37.13133199,-113.1569933
Terrell,129.21944922572519,9,32.76388608,-96.2998941
Cheshire,129.18157777991817,9,41.51259439,-72.90501126
Southgate,128.85741868685525,11,42.20489426,-83.20599906
Commerce City,128.67463993483722,12,39.87418864,-104.76548510000002
Millbourne,128.2894820210606,24,39.96035163,-75.27041565
College Park,128.2137513333413,3,39.00181882,-76.92958742
Highland Village,128.12800021097064,6,33.078972,-97.06579364
Owasso,127.85423027896535,5,36.27953117,-95.81539055
La Puente,127.82873075044017,12,34.02925655,-117.9372981
Juneau,127.68707224632824,3,58.364275670000005,-134.1219753
Crestwood,127.6686327410584,14,41.63430802,-87.73757807
Ocoee,127.5522549172062,9,28.57780075,-81.53474316
Glenview,127.54236637685511,12,42.07496112,-87.82011456
Kelso,127.52106754436477,13,46.15261672999999,-122.7952043
Salmon Creek,127.20771915657376,9,45.71593434,-122.6919778
Jefferson Valley,127.10797009315154,6,41.28325534,-73.79510576
Kannapolis,126.84590167733646,13,35.49397286538461,-80.60935300153847
Temple,126.78765887131314,11,31.112945226363635,-97.40715871181818
Bel Air North,126.69764913630874,6,39.53688935,-76.35179936
Benton,126.6625689300496,11,34.51003996181818,-92.60293025818181
Waimalu,126.3589625341937,7,21.40110974,-157.90440169999997
Old Bridge,126.30852685612219,16,40.40237363,-74.29117172
Martinez,126.23092949788702,13,36.613446624615385,-109.81843953538461
Wheaton,126.1799759135351,14,41.859064961428565,-88.11447352
San Dimas,126.05494741393248,4,34.10709563,-117.8112382
Glasgow,126.04208426375175,8,38.6195572725,-79.5495378925
Derby,125.81135528180182,6,37.56625558,-97.22069252
Lake Morton-Berrydale,125.67366058677598,17,47.36629636,-122.11691589999998
Muskogee,125.32091619863553,9,35.63169172,-95.27479721
Altoona,125.31209443852192,13,40.520899802307696,-78.3702950776923
South Elgin,125.18426388090201,7,41.99006247,-88.30489628
Mt. Juliet,125.16613433338019,15,36.17673853,-86.48913176
East Hartford,125.09602536808987,11,41.75443458,-72.61172688
Canandaigua,124.95704847182083,3,42.84559729,-77.30393971
Manalapan Township,124.82341862316336,9,40.28244482,-74.34238881
Vincennes,124.79553419612569,3,38.60846741,-87.52286037
Lemay,124.63205850395947,4,38.51936432,-90.29365353
Wolf Trap,124.63204346185861,8,38.93650758,-77.27392924
King George,124.55775868336517,7,38.26778511,-77.15555274
Claremore,124.48115834388304,13,36.39297198,-95.58573262000002
Laredo Ranchettes,124.44067857171781,7,27.54869532,-99.2582374
Desert Hot Springs,124.23878838077229,7,33.96229904,-116.5171106
Cornelius,124.2191026088975,12,35.47564498,-80.89416993
North Brunswick Township,124.13425307893696,11,40.44108035,-74.48617822
Genesee charter Township,123.91032893031867,4,43.06885275,-83.62143677
Lake in the Hills,123.73275351808925,6,42.19072521,-88.35210091
New Albany,123.52974832914211,4,38.28817416,-85.84726056
Ooltewah,123.05524649510673,10,35.11610469,-85.05721764
Daly City,122.94113899201116,17,37.68495037588235,-122.46679932941176
La Mirada,122.88911483623966,15,33.90199592,-118.0093853
Redmond,122.61197855325639,12,45.698912575,-121.60558209999999
Land O' Lakes,122.41809134677825,8,28.25415266125,-82.48664338125
Palm City,122.28690678073193,11,27.137219959999996,-80.36163768
San Carlos Park,122.2054433991034,4,26.47219544,-81.81241742
Temple Terrace,122.06305138702609,12,28.0390895,-82.39242783
Riverdale,122.04179706526297,15,35.174152312000004,-85.04675305999999
Brigham City,121.83792731542881,4,41.52609655,-112.0536762
Arnold,121.83043602314481,14,38.43068048,-90.39493495
Stafford,121.26512265457134,12,29.626040809999996,-95.56673264
Madison Charter Township,121.19228877653624,10,41.90054874,-84.06074019
Hermantown,121.16456479847031,5,46.84360532,-92.22016316
Sunnyvale,121.07584649539135,10,37.367472258,-122.02579206
East Orange,121.04746646593614,6,40.76664040666667,-74.21070144
Chatsworth,121.03440708489303,13,34.75040302,-84.7502296
North Platte,120.87938866875508,8,41.19711833,-100.7952838
Penn Hills,120.87752860825057,8,40.46004008,-79.8227288
North Olmsted,120.66742596113926,6,41.41511467,-81.91942036
Shoreview,120.59605786994246,8,45.08734315,-93.13942967
Montclair,120.57765966320798,8,36.600199915000005,-101.39297003875001
Fernandina Beach,120.42966458886912,3,30.61013352,-81.48905443
Chattanooga,120.22646345129041,12,35.10895304333334,-85.19048815166667
White Oak,120.20634579078177,6,39.20411202,-84.57987263
Rockville,119.96451048117547,11,40.25353505181818,-80.28260345818181
Paso Robles,119.91703881465294,9,35.66388499,-120.77126679999999
Poplar Bluff,119.8458785530868,3,36.78693116,-90.49993803
Ramsey,119.82657355425322,7,45.287685380000006,-93.42392153
Morristown,119.78474830298124,4,36.23607811,-83.33107913
East Northport,119.66669560511662,6,40.86450282,-73.31720752
Maitland,119.49344323511816,9,28.63099934,-81.36468978
Park Ridge,119.333357663755,8,42.01237028,-87.84443571
Layton,119.25720917451888,14,41.071450992857145,-111.97194145
Chestnut Ridge,119.10672182731284,15,41.11752969,-74.04863938
Corsicana,119.02982773807094,11,32.06804756,-96.50408137
Citrus Park,118.97847477711922,7,28.0679967,-82.56032539
Opelika,118.97571062000296,14,32.69974898,-85.39264715
Wheat Ridge,118.85526744309465,11,39.77403708,-105.1047396
Reedley,118.23742610082502,9,36.65301135,-119.4048129
Herndon,117.79492593267098,14,38.98103685,-77.37866053999998
Unionville,117.78274848830446,8,35.06699679,-80.52955294
Ranchettes,117.62479592357059,9,41.34871633,-104.8745978
Cheat Lake,117.5202791374158,8,39.5937945,-79.90253558
Tukwila,117.26524265558031,6,47.48912085,-122.30108590000002
Yakima,117.01818639246126,16,46.60573778625,-120.61020538125
Vineland,116.62218177872444,10,39.49462196,-75.00556238
Oliver,116.58945038198286,11,39.8992217,-79.74728324
Independence,116.57855896712925,10,38.992242895,-89.472394175
Suquamish,116.36404838385374,5,47.75233506,-122.6306014
Wilkinsburg,116.33754288490499,6,40.43465586,-79.86561249
Bayonne,116.13197459932856,8,40.66387883,-74.11085787
Terre Haute,115.93997485374607,11,39.35365861,-87.40486619
Turlock,115.88520679659567,8,37.5168787275,-120.85951625
Leominster,115.79670534219852,10,42.51827499,-71.76112952
Latrobe,115.66238251340543,7,40.26978469,-79.3901164
Warrensburg,115.5084930973889,6,38.78963102,-93.72899126
Imperial,115.27329776657075,9,33.47600684,-112.90704213333333
West Islip,115.24199196729468,9,40.70777184,-73.2983829
Four Corners,115.18802776873089,9,45.60736591,-111.1401161
Alice,115.18113668264834,11,27.70437135,-98.13000011
East Peoria,115.1744489163014,11,40.7110634,-89.53341304
Merced,115.11882815958145,27,37.25592148962963,-120.48507492222222
Inglewood,115.05031587794544,15,33.951063958,-118.34479912
Kaneohe,114.95957623549478,10,21.45841972,-157.834648
Sammamish,114.74523433522698,3,47.6232314,-122.0452873
Kalamazoo,114.67880992823748,9,42.29591869,-85.63028745
Boulder,114.00301401191554,15,40.046964169333336,-105.23844954666667
South Riding,113.8342690386865,6,38.90466912,-77.51795578
Rowlett,113.82342805086698,9,32.91921735666667,-96.54702650666667
Grayson,113.71165436072306,15,33.89009269,-83.96462393
Cypress Lake,113.68913070211002,8,26.55606694,-81.9032899
Fruit Cove,113.67626784795907,11,30.072131580000004,-81.60314335
Des Moines,113.5866148017146,14,44.09200458785714,-105.93468631642857
Victoria,113.54444403090753,13,28.85852948923077,-97.00492743923077
Bethel Park,113.48503701798454,6,40.32112155,-80.03714899
Hilton Head Island,113.4568233169642,2,32.22520393,-80.74621756
Moline,113.36536648710852,9,41.48332715,-90.49117329
Oakland Park,113.33080536781375,4,26.18343363,-80.13456131
Leland,113.30759192910409,9,34.23692211,-78.10843527
Fountainhead-Orchard Hills,113.27935042067023,11,39.67183441,-77.65833367
Affton,113.21964290408202,5,38.54858454,-90.32801553
Culver City,113.2186517885371,11,33.99704463,-118.39514050000001
Stanton,113.16257511298264,8,33.80066003,-117.9951234
Granger,112.64034331918975,3,41.73983182,-86.12832810000002
Doraville,112.48448758111923,5,33.89812015,-84.25091881
West Norriton,112.46323684071385,16,40.14954387,-75.38063421
Hartford,112.15498940792335,8,41.74767262,-72.69668021
Shorewood,112.14156005645034,6,41.51010518,-88.21941566
Boerne,112.04263466297714,8,29.87326207,-98.72357561
Oakdale,111.94321852842401,5,37.79614169,-120.7978631
Falmouth,111.91144589415354,10,38.31505838,-77.40392872
Renton,110.96618049172945,9,47.51372609,-122.1870464
Waynesboro,110.95573342710837,14,39.295558244285715,-77.95163193
St. Augustine,110.9007960153821,15,29.85040454,-81.3020181
Grape Creek,110.8558913422485,5,31.535131990000004,-100.6624978
Duluth,110.7783396416726,7,33.97662529,-84.14814549
Nanuet,110.64018732206101,15,41.09893216,-74.01289995
Harbison Canyon,110.57890003205029,20,32.83601109,-116.8721413
Idylwood,110.42069539190976,7,38.90078564,-77.19743039
Linglestown,110.33022477960738,6,40.35902062,-76.79133405
Walla Walla,110.32543498761085,8,46.08803728,-118.3117632
Perrysburg,110.19124751865328,9,41.52016907,-83.57949866
Mokena,110.02903232585544,11,41.53667161,-87.89220696
Rohnert Park,109.9538885217126,9,38.34726008,-122.6955518
Wyndmoor,109.85511406953952,13,40.10227385,-75.17069518
Lima,109.83890004665918,7,40.77683860999999,-84.03898935
Texas charter Township,109.77854306016442,17,42.30685445,-85.69352416
Faribault,109.67752906185636,8,44.29431414,-93.2742962
La Presa,109.28227690432495,11,32.72311201,-116.995501
Delhi,109.17842936777024,10,39.10915018,-84.61008117
Stockbridge,109.16125132632891,16,33.56265526,-84.19656328
Berkley,109.15709696826133,13,39.8153303,-105.009295
St. George,109.07841974760157,16,37.121599915,-113.58225445
El Dorado Hills,109.07776804106847,14,38.67564777,-121.0585414
Shreveport,108.80795497761618,6,32.45423546666667,-93.77600123333333
Airmont,108.52026407714632,9,41.11392024,-74.08017413
Corinth,108.39930976205746,8,34.91642862,-88.56365502
Woburn,108.20985691260478,6,42.48674961,-71.15465391
South Blooming Grove,108.18300676857531,12,41.31889546,-74.19911261
Nogales,108.11331014041814,6,31.42411237,-111.05470989999999
Salina,107.73542427141118,4,38.82962025,-97.64649489
Breaux Bridge,107.60136665456558,10,30.300023829999997,-91.74004898
Michigan City,107.54406064884546,10,41.69012287,-86.86813971
Aliquippa,107.51899705333182,5,40.59342402,-80.32008118
Melbourne,107.51448676224713,12,28.124129676666666,-80.63981942666666
Sonoma,107.48866450479767,8,38.24315112,-122.4550297
Deltona,107.41678284092241,7,28.90971205,-81.18916484
Stillwater Township,107.23238024652106,6,41.0621038,-74.81283506
Barstow,107.10042907337917,9,34.95876227,-116.98487549999999
Bloomfield,107.03008528449622,9,40.80983518,-74.18690324
Kalispell,107.02604354668848,10,48.21267545,-114.26368750000002
Schertz,107.007609504038,8,29.54711865,-98.2666523
Coram,107.00620677047914,9,40.88157437,-73.00357444
Waterbury,106.82627456009426,13,41.57543671076923,-73.04424339769231
Weslaco,106.71022848321635,7,26.14606554,-97.98571316
Chesterfield,106.56566636836011,13,38.565030452307695,-89.53885871615384
Sulphur,106.5334920750852,9,30.280776670000005,-93.3932334
Countryside,106.49567212261105,9,41.78239854,-87.86890343
Diamond Bar,106.49129055089897,4,33.99719637,-117.8139395
Red Lion,106.16872644993194,7,39.89597145,-76.58107494
City of Industry,105.9734284240909,10,34.04342245,-117.98696199999999
Fall River,105.91867839300093,3,41.713103493333335,-71.12838097333334
Bentonville,105.45657705558395,6,36.35054649,-94.25288255
Lake Magdalene,105.42035734071317,8,28.08388009,-82.45242396
Pittsfield Charter Township,105.21814112641235,5,42.2220402,-83.73184793
Alpharetta,105.04155278592978,4,34.08524555,-84.21999617
Olney,105.03610803268242,7,39.15155747,-77.0729856
Bon Air,105.00221447358327,5,37.51560154,-77.56527554
Upland,104.9237527709332,6,34.132319015,-117.65874129999999
Hinesville,104.84677395616497,6,31.89637227,-81.62316504
Vernon,104.74780791130243,8,41.83639943,-72.4606734
American Fork,104.73263176368903,16,40.39436754,-111.7963125
Freeport,104.65770472762779,7,40.64761874,-73.58281927
Norwood,104.56259213131796,8,42.18498746,-71.1952025
Colton,104.19901075980832,6,34.03303406,-117.2894518
Mechanicsburg,104.13550672925251,12,40.17824134,-76.99915134
Lompoc,103.7820657692193,10,34.60480533,-120.40653690000002
Merrillville,103.64625196405169,13,41.48004031999999,-87.33114566
Greeley,103.63996742212298,12,40.42343968,-104.7381782
Pensacola,103.44874534019046,8,30.46063637,-87.21386984
Kendall,103.3129402536928,12,25.65843079,-80.35867979
Joplin,103.18690753046432,13,37.04736125769231,-94.50556273923077
Lorain,102.88289986175008,6,41.45698486,-82.16269484
Lake Hallie,102.51302526602264,8,44.94135808,-91.39106758
Severn,102.42396655143392,8,39.12155024,-76.67789257
Deer Park,102.39568351236122,15,34.860372524666666,-84.94632896066668
Foster City,102.06076625911504,6,37.55612864,-122.2692326
Waipahu,102.04631696729021,2,21.40250697,-158.0411899
Elkridge,102.03429995339344,5,39.20432054,-76.75264668
Boardman,101.97600028663874,1,41.02494409,-80.66777651
Poughkeepsie,101.73079449405543,3,41.70134048,-73.91483513
Boiling Springs,101.69644559357417,5,35.04277159,-81.9753976
Amsterdam,101.55298019975841,5,42.93472533,-74.17641761
Cape Girardeau,101.53491541385276,11,37.3347077,-89.57848202
Rolla,101.02078445005311,6,37.89744843,-91.76510493
Owatonna,100.8198980612534,2,44.0577796,-93.22093607
Spring House,100.64751991111804,5,40.18412911,-75.21098996
Santa Fe,100.16158650403061,7,35.62890298,-105.86327330000002
Methuen,100.09911263237835,11,42.73399601,-71.18885749
River Vale,99.88298314524519,4,41.00920748,-74.00416328
Sycamore,99.82489736520274,11,42.00465646,-88.67168862
Fountain Hills,99.60601192900026,8,33.6130622,-111.7440881
Deptford,99.50954463299149,7,39.82933349,-75.12770865
Winona,99.4572960682323,5,43.98918285,-91.64037074
Galt,99.41894569985232,9,38.27170796,-121.24964080000001
Three Lakes,99.3995064791653,14,33.618204635,-95.25944140785714
Union,99.28468937717409,12,39.9552542925,-78.63316572
Collierville,99.19601350770989,11,35.07011519,-89.65062005
Manhattan Beach,99.14518051188112,14,33.88967891,-118.40063440000002
Rosemead,98.76131913805642,7,34.06171842,-118.0826445
Rosenberg,98.68448402985138,2,29.5399112,-95.87404968
Channelview,98.66939831174028,7,29.78705771,-95.10899153
Monterey,98.43618913382278,11,36.52731581,-121.84171
Winchester,98.21881158155009,6,36.727509223333335,-94.12683921
Long Grove,98.12616826050692,2,42.20226989,-88.04602614
Seaside,98.08825554848151,9,36.62909674,-121.7980342
Zephyrhills,98.05974474682219,4,28.2289701075,-82.21030992
Rose Hill,98.03905951277982,8,38.78409803,-77.12261283
Chevy Chase,97.9701629656713,2,38.98388103,-77.07868407
Ruskin,97.31849884932488,3,27.70022892,-82.44922054
Daphne,96.996588674823,7,30.61363151,-87.86307516
Douglasville,96.98408799600863,14,33.74544144,-84.76947399428572
Branson,96.80567217263366,4,36.66813306,-93.24791018
Ephrata Township,96.53566992371638,6,40.17965343,-76.28018497833334
Muskego,96.43270202104077,18,42.88514482,-88.12848173
Welcome,96.41094513001364,5,35.86807748,-80.3148121
Chillum,96.29154972145994,3,38.96448183,-76.96492616
La Grange,96.26559396135356,10,38.42840433,-85.39498959
Lawndale,95.99890164577813,4,33.88806739,-118.3508124
Jeffersonville,95.88527245124712,9,38.3288358,-85.7040203
El Cajon,95.53258251683211,10,32.79617302,-116.97039479999998
Heber City,95.52146053672075,15,40.38367461,-111.1995818
Karns,95.26025009363214,5,35.97477818,-84.13215139
Junction City,95.16756699323446,8,38.98449307,-96.80073219
Miami Gardens,95.08329184361871,18,25.946823473333335,-80.24612457333333
Bourbonnais,94.93834670031677,7,41.18712143,-87.86191569999998
Campbell,94.83382148532309,12,37.27978004,-121.9548755
Madera,94.65424946431438,6,36.91042069,-120.1907926
Haines City,94.52628183163321,6,28.07753878,-81.56961711
Keller,94.40101178865206,7,32.9272009,-97.22929177
Walnut Creek,94.34590043715829,4,37.8969602,-121.982742
Queen Creek,94.1368459405385,5,33.18885127,-111.6617996
Cumberland,94.12447875970923,7,41.63853722714286,-72.46813927285714
Edwardsville,94.05414301127031,8,38.82765772,-89.93068837
Sumter,93.75820749699483,7,33.8738608,-80.35499108
Villa Rica,93.71699230695201,9,33.71876954,-84.91830436
Wentzville,93.70878999723314,7,38.79655438000001,-90.85629011
Kamilche,93.55154395191522,10,47.22679596,-123.1518068
West Little River,93.52099315335177,6,25.85179558,-80.23811954
Altadena,93.40383581072467,3,34.21346211,-118.13258130000001
Lahaina,93.3882383674607,11,20.92530938,-156.6516913
Navarre,93.28159373191535,8,30.45041842,-86.88225221
Kerrville,93.04816324774671,5,30.033114469999997,-99.17537432
Wheeling,92.9641277162327,9,40.07514773,-80.65089314
New Iberia,92.80365145693804,5,29.948836149999998,-91.86597081
Cottage Lake,92.69819942600263,3,47.76135259,-122.13153289999998
Agoura Hills,92.63590259252399,5,34.12312274,-118.7567733
Los Banos,92.63444450086149,4,36.97515229,-120.9073489
The Villages,92.59701344074055,3,28.91676169,-81.99355039
East Lansing,92.56075999103027,8,42.76020378,-84.45061004
West Saint Paul,92.4281941947019,13,44.89684813,-93.10427493
Apex,92.2214799932689,11,35.70112135272728,-78.86315663090909
Glen Allen,92.11177396644348,8,37.67565321,-77.5456575675
Lake Villa,92.0903496595163,4,42.41481069,-88.0609501
Saugus,91.87630842425054,10,42.46854335,-71.015256
Lake Murray of Richland,91.73895235467147,10,34.14165261,-81.20462444
Dearborn Heights,91.36776630385287,5,42.33678095,-83.28223643
Coto de Caza,91.1154525440586,7,33.62674379,-117.5869256
Bonney Lake,91.07556217824227,3,47.177199800000004,-122.1724764
Lino Lakes,90.98487057462066,4,45.2001514,-93.11854603
Kaukauna,90.94740267295951,6,44.31810144,-88.24359583
Lincolnia,90.85481102568573,4,38.81728549,-77.15354687
Williamsport,90.65153639142518,6,41.34567043,-76.88416818
Bellview,90.47296828522697,4,30.49641495,-87.36470667
Bossier City,90.21833741766389,5,32.473265052,-93.65184041
Cross Roads,90.08506425935362,6,33.2745782,-96.98990807
Norristown,89.88692283110106,7,40.12991586,-75.33197555
Vestal,89.51964962905222,5,42.04938359,-76.02583763
West Dundee,89.49496305217184,3,42.10675291,-88.30869154
Kankakee,89.37465775135254,3,41.11022822,-87.89647126
Laguna Niguel,89.27723277345248,5,33.52732502,-117.7044367
Euless,89.27686477411724,13,32.84176788076923,-97.08273046
Cortland West,89.2650656898075,6,42.58985145,-76.18952757
Catonsville,89.1580733809618,9,39.27190452,-76.74687328
Keene,89.06833172940091,8,42.96461108,-72.29690286
Hartsville,88.95699770393847,7,34.40062082,-80.07853852999999
Lacey,88.89749305606651,4,47.02497527,-122.7997427
Bagdad,88.7582162154726,3,30.58788283,-86.95750128000002
Bellwood,88.67662937115402,2,37.40195895,-77.45538899
Superior Charter Township,88.50983678147509,4,42.27469708,-83.5882402
El Mirage,88.43327808288709,6,33.59075351,-112.328347
Eagle Pass,88.28476688084582,10,28.7514387,-100.3102556
Kirkland,88.13367919229945,9,47.68047049111111,-122.19430158888889
Pace,88.11465608390179,8,30.66803039,-87.19482306
Mission,88.05832355694903,10,26.20081419,-98.35775954
Ringgold,87.81055846771403,5,34.90466603,-85.13316878
Moncks Corner,87.74350164215159,6,33.15103492,-79.99853978
Piedmont,87.72191195575819,7,34.71821413,-82.45801057000001
Cuyahoga Falls,87.65798111960726,5,41.13910826,-81.47630284
Myrtle Grove,87.6567383390717,6,30.39187219,-87.36858461000001
Nixa,87.59792407265365,13,37.03888618,-93.32039094
South Lake Tahoe,87.5645424947288,4,38.86951311,-120.0170552
Talladega,87.26413884989708,4,33.36698997,-86.09699412
Poway,87.2296655522246,8,32.97983344,-117.0171469
Chesterton,86.92622838889253,12,41.61931658,-87.0470213
Londonderry,86.8088617883637,6,42.87780983,-71.38646056
Seaford,86.74176573929228,8,38.63132448,-75.63028451
Mocksville,86.64533626805945,9,35.92527213,-80.57739886
Wethersfield,86.30888428566783,8,41.70089759,-72.66894043
Sebring,86.20723985851062,7,27.50208523,-81.40181543000001
Haltom City,85.77788635608565,6,32.80084882,-97.26690531000001
Puyallup,85.69509139465566,3,47.19972187,-122.32208329999999
John Sam Lake,85.40843985137104,5,48.09268357,-122.2373382
Wellington,85.39893373498718,10,26.64829943,-80.24987292
Sheridan,85.26480640434289,7,44.81813777,-106.8844235
Lakeland Highlands,85.04189564097427,3,27.961038149999997,-81.93821237
Galesburg,85.02072629903803,7,40.94467055,-90.37802564
Miami Springs,85.01622971694195,7,25.82743431,-80.31387321
New Brunswick,84.95073770805365,5,40.48525027,-74.44430646
Bartow,84.8592856538299,10,27.87704496,-81.81245051
Orange Lake,84.73595431012882,9,41.53621099,-74.04885149
Slidell,84.72637206255664,11,30.258156855454548,-89.83400667272727
Thonotosassa,84.68714879896815,3,28.00674921,-82.28902693
Bartlesville,84.44185005661306,6,36.70874183,-95.85876838999998
Valley Stream,84.43842465933135,11,40.67492916,-73.70365949
Carpentersville,83.88875371434031,5,42.12455068,-88.2856522
Gulf Gate Estates,83.69769701197009,12,27.26655629,-82.51626962
Jamestown,83.69639371733534,13,42.383148161538465,-81.81149924461539
Ballenger Creek,83.54245941829933,3,39.36584689,-77.4713072
White Bear Lake,83.4959061019754,8,45.0902649,-93.00301736
West Sacramento,83.35635364069623,8,38.61964572,-121.598455
Corcoran,83.23211144473635,4,36.03582031,-119.5386909
Corbin,83.18445817607326,6,36.9222657,-84.15726286
Madisonville,83.10503289100897,5,37.32990334,-87.47769913
Niceville,82.98946543884311,6,30.52056532,-86.42997688999999
Prairie Village,82.86598570221045,8,38.99922169,-94.62964042
Melrose,82.7831819708447,4,42.45626357,-71.0586544
Vineyard,82.50284400720625,5,38.48998845,-121.32871070000002
Beulah Valley,82.46470002931608,5,38.18811521,-104.83345
Vista West,82.44427422455216,9,42.80534281,-106.7721314
Casas Adobes,82.25405234057439,16,32.34056783375,-110.98974710625
Fairmont,82.25288545350753,12,39.45710194,-80.11002689
Parkville,82.23959888618,7,39.21437921,-94.73447645
Grand Junction,82.15359507735644,6,39.08801476,-108.5298535
Macomb,82.11196680463262,6,42.68701503,-82.90895567
Paramount,82.07184853144511,5,33.89753604,-118.16475540000002
Orcutt,81.95235820755957,15,34.83606382,-120.45078600000001
Picayune,81.93329460942974,9,30.519867600000005,-89.66013041
Hermon,81.92534724035119,7,44.84931408,-68.84608497
Westlake,81.90422196172489,11,35.312678421818184,-93.05359860272728
Tuscaloosa,81.75621861647039,11,33.17128256454546,-87.56074377727272
